{
"type": "FeatureCollection",
"name": "Power_Plants",
"crs": { "type": "name", "properties": { "name": "urn:ogc:def:crs:OGC:1.3:CRS84" } },
"features": [
{ "type": "Feature", "properties": { "OBJECTID": 484, "PLANT_CODE": "371", "NAME": "COLUMBIA GENERATING STATION", "ADDRESS": "PO BOX 968", "CITY": "RICHLAND", "STATE": "WA", "ZIP": "99352", "TELEPHONE": "NOT AVAILABLE", "TYPE": "NUCLEAR", "STATUS": "OP", "COUNTY": "BENTON", "COUNTYFIPS": "53005", "COUNTRY": "USA", "LATITUDE": 46.471665493000046, "LONGITUDE": -119.33446398599995, "NAICS_CODE": "221113", "NAICS_DESC": "NUCLEAR ELECTRIC POWER GENERATION", "SOURCE": "EIA 860", "SOURCEDATE": "2017-06-09T00:00:00Z", "VAL_METHOD": "IMAGERY/OTHER", "VAL_DATE": "2017-06-09T00:00:00Z", "WEBSITE": "NOT AVAILABLE", "OPERATOR": "ENERGY NORTHWEST", "OPERAT_ID": "20160", "OPER_CAP": 1200.0, "SUMMER_CAP": 1163.0, "WINTER_CAP": 1163.0, "PLAN_CAP": 0.0, "RETIRE_CAP": 0.0, "GEN_UNITS": 1.0, "PLAN_UNIT": 0.0, "RETIR_UNIT": 0.0, "PRIM_FUEL": "NUC", "SEC_FUEL": "NOT AVAILABLE", "COAL_USED": 0.0, "NGAS_USED": 0.0, "OIL_USED": 0.0, "NET_GEN": 9625622.0, "CAP_FACTOR": 0.94725, "SUB_1": "COLUMBIA GENERATING STATION", "SUB_2": "WNP NO. 2 CONSTRUCTION", "LINES": 2.0, "SOURCE_LAT": 46.471665493000046, "SOURC_LONG": -119.33446398599995 }, "geometry": { "type": "Point", "coordinates": [ -119.334463985999946, 46.471665493000046 ] } },
{ "type": "Feature", "properties": { "OBJECTID": 1156, "PLANT_CODE": "6251", "NAME": "SOUTH TEXAS PROJECT", "ADDRESS": "8 MI. W. OF WADSWORTH ON FM521", "CITY": "WADSWORTH", "STATE": "TX", "ZIP": "77483", "TELEPHONE": "NOT AVAILABLE", "TYPE": "NUCLEAR", "STATUS": "OP", "COUNTY": "MATAGORDA", "COUNTYFIPS": "48321", "COUNTRY": "USA", "LATITUDE": 28.795, "LONGITUDE": -96.0481, "NAICS_CODE": "221113", "NAICS_DESC": "NUCLEAR ELECTRIC POWER GENERATION", "SOURCE": "EIA 860, EIA 923, eGRID", "SOURCEDATE": "2017-11-09T00:00:00Z", "VAL_METHOD": "IMAGERY", "VAL_DATE": "2015-06-12T00:00:00Z", "WEBSITE": "NOT AVAILABLE", "OPERATOR": "STP NUCLEAR OPERATING CO", "OPERAT_ID": "21535", "OPER_CAP": 2708.6, "SUMMER_CAP": 2560.0, "WINTER_CAP": 2560.0, "PLAN_CAP": 0.0, "RETIRE_CAP": 0.0, "GEN_UNITS": 2.0, "PLAN_UNIT": 0.0, "RETIR_UNIT": 0.0, "PRIM_FUEL": "NUC", "SEC_FUEL": "NOT AVAILABLE", "COAL_USED": 0.0, "NGAS_USED": 0.0, "OIL_USED": 0.0, "NET_GEN": 21694303.0, "CAP_FACTOR": 0.96739008, "SUB_1": "UNKNOWN", "SUB_2": "NOT AVAILABLE", "LINES": 4.0, "SOURCE_LAT": 28.795, "SOURC_LONG": -96.0481 }, "geometry": { "type": "Point", "coordinates": [ -96.0481, 28.795 ] } },
{ "type": "Feature", "properties": { "OBJECTID": 1444, "PLANT_CODE": "6145", "NAME": "COMANCHE PEAK", "ADDRESS": "FARM TO MARKET ROAD 56", "CITY": "GLEN ROSE", "STATE": "TX", "ZIP": "76043", "TELEPHONE": "NOT AVAILABLE", "TYPE": "NUCLEAR", "STATUS": "OP", "COUNTY": "SOMERVELL", "COUNTYFIPS": "48425", "COUNTRY": "USA", "LATITUDE": 32.29836, "LONGITUDE": -97.78552, "NAICS_CODE": "221113", "NAICS_DESC": "NUCLEAR ELECTRIC POWER GENERATION", "SOURCE": "EIA 860, EIA 923, eGRID", "SOURCEDATE": "2017-11-09T00:00:00Z", "VAL_METHOD": "IMAGERY", "VAL_DATE": "2015-06-12T00:00:00Z", "WEBSITE": "http://www.luminant.com/powering-texas/generation-capacity-and-energy-production/#.VXr__flVjOE", "OPERATOR": "LUMINANT GENERATION COMPANY LLC", "OPERAT_ID": "55983", "OPER_CAP": 2430.0, "SUMMER_CAP": 2400.0, "WINTER_CAP": 2460.0, "PLAN_CAP": 0.0, "RETIRE_CAP": 0.0, "GEN_UNITS": 2.0, "PLAN_UNIT": 0.0, "RETIR_UNIT": 0.0, "PRIM_FUEL": "NUC", "SEC_FUEL": "NOT AVAILABLE", "COAL_USED": 0.0, "NGAS_USED": 0.0, "OIL_USED": 0.0, "NET_GEN": 20385142.0, "CAP_FACTOR": 0.96961292, "SUB_1": "UNKNOWN", "SUB_2": "UNKNOWN", "LINES": 1.0, "SOURCE_LAT": 32.298365, "SOURC_LONG": -97.785515 }, "geometry": { "type": "Point", "coordinates": [ -97.78552, 32.29836 ] } },
{ "type": "Feature", "properties": { "OBJECTID": 1661, "PLANT_CODE": "6008", "NAME": "PALO VERDE", "ADDRESS": "WINTERSBURG ROAD", "CITY": "WINTERSBURG", "STATE": "AZ", "ZIP": "85036", "TELEPHONE": "(602) 371-6767", "TYPE": "NUCLEAR", "STATUS": "OP", "COUNTY": "MARICOPA", "COUNTYFIPS": "04013", "COUNTRY": "USA", "LATITUDE": 33.3881, "LONGITUDE": -112.8617, "NAICS_CODE": "221113", "NAICS_DESC": "NUCLEAR ELECTRIC POWER GENERATION", "SOURCE": "EIA 860, EIA 923", "SOURCEDATE": "2017-11-09T00:00:00Z", "VAL_METHOD": "IMAGERY/OTHER", "VAL_DATE": "2014-08-27T00:00:00Z", "WEBSITE": "https://www.aps.com/", "OPERATOR": "ARIZONA PUBLIC SERVICE CO", "OPERAT_ID": "803", "OPER_CAP": 4209.6, "SUMMER_CAP": 3937.0, "WINTER_CAP": 4003.0, "PLAN_CAP": 0.0, "RETIRE_CAP": 0.0, "GEN_UNITS": 3.0, "PLAN_UNIT": 0.0, "RETIR_UNIT": 0.0, "PRIM_FUEL": "NUC", "SEC_FUEL": "NOT AVAILABLE", "COAL_USED": 0.0, "NGAS_USED": 0.0, "OIL_USED": 0.0, "NET_GEN": 32377477.0, "CAP_FACTOR": 0.93880087, "SUB_1": "PALO VERDE", "SUB_2": "NOT AVAILABLE", "LINES": 1.0, "SOURCE_LAT": 33.3881, "SOURC_LONG": -112.8617 }, "geometry": { "type": "Point", "coordinates": [ -112.8617, 33.3881 ] } },
{ "type": "Feature", "properties": { "OBJECTID": 1693, "PLANT_CODE": "360", "NAME": "SAN ONOFRE NUCLEAR GENERATING STATION", "ADDRESS": "5000 PACIFIC COAST HIGHWAY", "CITY": "SAN CLEMENTE", "STATE": "CA", "ZIP": "92672", "TELEPHONE": "(800) 990-7788", "TYPE": "NUCLEAR", "STATUS": "RE", "COUNTY": "SAN DIEGO", "COUNTYFIPS": "06073", "COUNTRY": "USA", "LATITUDE": 33.368794, "LONGITUDE": -117.554916, "NAICS_CODE": "221113", "NAICS_DESC": "NUCLEAR ELECTRIC POWER GENERATION", "SOURCE": "EIA 860, EIA 923", "SOURCEDATE": "2017-11-09T00:00:00Z", "VAL_METHOD": "IMAGERY/OTHER", "VAL_DATE": "2014-08-27T00:00:00Z", "WEBSITE": "www.sce.com/wps/portal", "OPERATOR": "SOUTHERN CALIFORNIA EDISON CO", "OPERAT_ID": "17609", "OPER_CAP": -999999.0, "SUMMER_CAP": -999999.0, "WINTER_CAP": -999999.0, "PLAN_CAP": 0.0, "RETIRE_CAP": 2254.0, "GEN_UNITS": -999999.0, "PLAN_UNIT": 0.0, "RETIR_UNIT": 2.0, "PRIM_FUEL": "NUC", "SEC_FUEL": "NOT AVAILABLE", "COAL_USED": 0.0, "NGAS_USED": 0.0, "OIL_USED": 0.0, "NET_GEN": -999999.0, "CAP_FACTOR": -999999.0, "SUB_1": "SAN ONOFRE", "SUB_2": "NOT AVAILABLE", "LINES": 0.0, "SOURCE_LAT": 33.368794, "SOURC_LONG": -117.554916 }, "geometry": { "type": "Point", "coordinates": [ -117.554916, 33.368794 ] } },
{ "type": "Feature", "properties": { "OBJECTID": 2533, "PLANT_CODE": "6099", "NAME": "DIABLO CANYON", "ADDRESS": "AVILA RD. BET. MONTANO DE ORO", "CITY": "AVILA BEACH", "STATE": "CA", "ZIP": "93424", "TELEPHONE": "(415) 973-7000", "TYPE": "NUCLEAR", "STATUS": "OP", "COUNTY": "SAN LUIS OBISPO", "COUNTYFIPS": "06079", "COUNTRY": "USA", "LATITUDE": 35.211536, "LONGITUDE": -120.855542, "NAICS_CODE": "221113", "NAICS_DESC": "NUCLEAR ELECTRIC POWER GENERATION", "SOURCE": "EIA 860, EIA 923", "SOURCEDATE": "2017-11-09T00:00:00Z", "VAL_METHOD": "IMAGERY/OTHER", "VAL_DATE": "2014-08-27T00:00:00Z", "WEBSITE": "www.pge.com", "OPERATOR": "PACIFIC GAS & ELECTRIC CO", "OPERAT_ID": "14328", "OPER_CAP": 2323.0, "SUMMER_CAP": 2240.0, "WINTER_CAP": 2240.0, "PLAN_CAP": 0.0, "RETIRE_CAP": 0.0, "GEN_UNITS": 2.0, "PLAN_UNIT": 0.0, "RETIR_UNIT": 0.0, "PRIM_FUEL": "NUC", "SEC_FUEL": "NOT AVAILABLE", "COAL_USED": 0.0, "NGAS_USED": 0.0, "OIL_USED": 0.0, "NET_GEN": 18907578.0, "CAP_FACTOR": 0.96357112, "SUB_1": "DIABLO CANYON", "SUB_2": "NOT AVAILABLE", "LINES": 0.0, "SOURCE_LAT": 35.211536, "SOURC_LONG": -120.855542 }, "geometry": { "type": "Point", "coordinates": [ -120.855542, 35.211536 ] } },
{ "type": "Feature", "properties": { "OBJECTID": 4097, "PLANT_CODE": "46", "NAME": "BROWNS FERRY", "ADDRESS": "SHAW RD. PO BOX 2000", "CITY": "DECATUR", "STATE": "AL", "ZIP": "35609", "TELEPHONE": "(256) 729-2000", "TYPE": "NUCLEAR", "STATUS": "OP", "COUNTY": "LIMESTONE", "COUNTYFIPS": "01083", "COUNTRY": "USA", "LATITUDE": 34.7042, "LONGITUDE": -87.118572001999951, "NAICS_CODE": "221113", "NAICS_DESC": "NUCLEAR ELECTRIC POWER GENERATION", "SOURCE": "EIA 860, EIA 923", "SOURCEDATE": "2019-09-03T00:00:00Z", "VAL_METHOD": "IMAGERY/OTHER", "VAL_DATE": "2014-04-09T00:00:00Z", "WEBSITE": "http://www.tva.gov/sites/brownsferry.htm", "OPERATOR": "TENNESSEE VALLEY AUTHORITY", "OPERAT_ID": "18642", "OPER_CAP": 3494.0, "SUMMER_CAP": 3619.4, "WINTER_CAP": 3711.1, "PLAN_CAP": 0.0, "RETIRE_CAP": 0.0, "GEN_UNITS": 3.0, "PLAN_UNIT": 0.0, "RETIR_UNIT": 0.0, "PRIM_FUEL": "NUC", "SEC_FUEL": "NOT AVAILABLE", "COAL_USED": 0.0, "NGAS_USED": 0.0, "OIL_USED": 0.0, "NET_GEN": 25397781.0, "CAP_FACTOR": 0.80104162803037804, "SUB_1": "BROWNS FERRY", "SUB_2": "NOT AVAILABLE", "LINES": 1.0, "SOURCE_LAT": 34.7042, "SOURC_LONG": -87.1189 }, "geometry": { "type": "Point", "coordinates": [ -87.118572001999951, 34.7042 ] } },
{ "type": "Feature", "properties": { "OBJECTID": 4158, "PLANT_CODE": "204", "NAME": "CLINTON POWER STATION", "ADDRESS": "RT. 54 WEST", "CITY": "CLINTON", "STATE": "IL", "ZIP": "61727", "TELEPHONE": "NOT AVAILABLE", "TYPE": "NUCLEAR", "STATUS": "OP", "COUNTY": "DE WITT", "COUNTYFIPS": "17039", "COUNTRY": "USA", "LATITUDE": 40.172982655000055, "LONGITUDE": -88.834369943999945, "NAICS_CODE": "221113", "NAICS_DESC": "NUCLEAR ELECTRIC POWER GENERATION", "SOURCE": "EIA 860, EIA 923", "SOURCEDATE": "2019-09-03T00:00:00Z", "VAL_METHOD": "IMAGERY", "VAL_DATE": "2015-04-28T00:00:00Z", "WEBSITE": "NOT AVAILABLE", "OPERATOR": "EXELON NUCLEAR", "OPERAT_ID": "55951", "OPER_CAP": 1138.3, "SUMMER_CAP": 1065.0, "WINTER_CAP": 1078.0, "PLAN_CAP": 0.0, "RETIRE_CAP": 0.0, "GEN_UNITS": 1.0, "PLAN_UNIT": 0.0, "RETIR_UNIT": 0.0, "PRIM_FUEL": "NUC", "SEC_FUEL": "NOT AVAILABLE", "COAL_USED": 0.0, "NGAS_USED": 0.0, "OIL_USED": 0.0, "NET_GEN": 8346686.0, "CAP_FACTOR": 0.894664823032564, "SUB_1": "CLINTON STATION", "SUB_2": "NOT AVAILABLE", "LINES": 1.0, "SOURCE_LAT": 40.1719, "SOURC_LONG": -88.8339 }, "geometry": { "type": "Point", "coordinates": [ -88.834369943999945, 40.172982655000055 ] } },
{ "type": "Feature", "properties": { "OBJECTID": 4160, "PLANT_CODE": "210", "NAME": "WOLF CREEK GENERATING STATION", "ADDRESS": "1550 OXEN LANE N.E.", "CITY": "BURLINGTON", "STATE": "KS", "ZIP": "66839", "TELEPHONE": "NOT AVAILABLE", "TYPE": "NUCLEAR", "STATUS": "OP", "COUNTY": "COFFEY", "COUNTYFIPS": "20031", "COUNTRY": "USA", "LATITUDE": 38.239616919000071, "LONGITUDE": -95.689266035999935, "NAICS_CODE": "221113", "NAICS_DESC": "NUCLEAR ELECTRIC POWER GENERATION", "SOURCE": "EIA 860, EIA 923", "SOURCEDATE": "2019-09-03T00:00:00Z", "VAL_METHOD": "IMAGERY", "VAL_DATE": "2017-04-24T00:00:00Z", "WEBSITE": "http://www.wcnoc.com/", "OPERATOR": "WOLF CREEK NUCLEAR OPTG CORP", "OPERAT_ID": "20893", "OPER_CAP": 1267.7, "SUMMER_CAP": 1225.0, "WINTER_CAP": 1255.0, "PLAN_CAP": 0.0, "RETIRE_CAP": 0.0, "GEN_UNITS": 1.0, "PLAN_UNIT": 0.0, "RETIR_UNIT": 0.0, "PRIM_FUEL": "NUC", "SEC_FUEL": "NOT AVAILABLE", "COAL_USED": 0.0, "NGAS_USED": 0.0, "OIL_USED": 0.0, "NET_GEN": 9168289.0, "CAP_FACTOR": 0.85437414965986402, "SUB_1": "WOLF CREEK", "SUB_2": "NOT AVAILABLE", "LINES": 1.0, "SOURCE_LAT": 38.23926, "SOURC_LONG": -95.68978 }, "geometry": { "type": "Point", "coordinates": [ -95.689266035999935, 38.239616919000071 ] } },
{ "type": "Feature", "properties": { "OBJECTID": 4188, "PLANT_CODE": "566", "NAME": "MILLSTONE", "ADDRESS": "ROUTE 156 ROPE FERRY ROAD", "CITY": "WATERFORD", "STATE": "CT", "ZIP": "06385", "TELEPHONE": "(860) 444-5797", "TYPE": "NUCLEAR", "STATUS": "OP", "COUNTY": "NEW LONDON", "COUNTYFIPS": "09011", "COUNTRY": "USA", "LATITUDE": 41.311479525000038, "LONGITUDE": -72.167792247999955, "NAICS_CODE": "221113", "NAICS_DESC": "NUCLEAR ELECTRIC POWER GENERATION", "SOURCE": "EIA 860, EIA 923", "SOURCEDATE": "2019-09-03T00:00:00Z", "VAL_METHOD": "IMAGERY/OTHER", "VAL_DATE": "2015-08-25T00:00:00Z", "WEBSITE": "https://www.dom.com/", "OPERATOR": "DOMINION ENERGY NUCLEAR CONN INC", "OPERAT_ID": "5221", "OPER_CAP": 2162.9, "SUMMER_CAP": 2073.1, "WINTER_CAP": 2096.7, "PLAN_CAP": 0.0, "RETIRE_CAP": 0.0, "GEN_UNITS": 2.0, "PLAN_UNIT": 0.0, "RETIR_UNIT": 0.0, "PRIM_FUEL": "NUC", "SEC_FUEL": "NOT AVAILABLE", "COAL_USED": 0.0, "NGAS_USED": 0.0, "OIL_USED": 0.0, "NET_GEN": 16881492.0, "CAP_FACTOR": 0.92957935406112102, "SUB_1": "UNKNOWN135916", "SUB_2": "MILLSTONE", "LINES": 1.0, "SOURCE_LAT": 41.3107, "SOURC_LONG": -72.1677 }, "geometry": { "type": "Point", "coordinates": [ -72.167792247999955, 41.311479525000038 ] } },
{ "type": "Feature", "properties": { "OBJECTID": 4211, "PLANT_CODE": "621", "NAME": "TURKEY POINT", "ADDRESS": "9700 SW 344TH STREET", "CITY": "HOMESTEAD", "STATE": "FL", "ZIP": "33035", "TELEPHONE": "NOT AVAILABLE", "TYPE": "NATURAL GAS FIRED COMBINED CYCLE; NATURAL GAS STEAM TURBINE; NUCLEAR; PETROLEUM LIQUIDS", "STATUS": "OP", "COUNTY": "MIAMI-DADE", "COUNTYFIPS": "12086", "COUNTRY": "USA", "LATITUDE": 25.435954157000026, "LONGITUDE": -80.331495212999982, "NAICS_CODE": "221113", "NAICS_DESC": "NUCLEAR ELECTRIC POWER GENERATION", "SOURCE": "EIA 860, EIA 923", "SOURCEDATE": "2019-09-03T00:00:00Z", "VAL_METHOD": "IMAGERY", "VAL_DATE": "2015-01-16T00:00:00Z", "WEBSITE": "http://www.fpl.com/environment/nuclear/about_turkey_point.shtml", "OPERATOR": "FLORIDA POWER & LIGHT CO", "OPERAT_ID": "6452", "OPER_CAP": 2861.2, "SUMMER_CAP": 2825.0, "WINTER_CAP": 2960.0, "PLAN_CAP": 0.0, "RETIRE_CAP": 817.5, "GEN_UNITS": 7.0, "PLAN_UNIT": 0.0, "RETIR_UNIT": 7.0, "PRIM_FUEL": "NUC", "SEC_FUEL": "NG", "COAL_USED": 0.0, "NGAS_USED": 42341612.0, "OIL_USED": 17109.0, "NET_GEN": 19812429.994, "CAP_FACTOR": 0.80059926431486605, "SUB_1": "TURKEY POINT", "SUB_2": "NOT AVAILABLE", "LINES": 1.0, "SOURCE_LAT": 25.4356, "SOURC_LONG": -80.3308 }, "geometry": { "type": "Point", "coordinates": [ -80.331495212999982, 25.435954157000026 ] } },
{ "type": "Feature", "properties": { "OBJECTID": 4215, "PLANT_CODE": "628", "NAME": "CRYSTAL RIVER", "ADDRESS": "15760 WEST POWERLINE STREET", "CITY": "CRYSTAL RIVER", "STATE": "FL", "ZIP": "34428", "TELEPHONE": "(352) 563-4489", "TYPE": "CONVENTIONAL STEAM COAL; NATURAL GAS FIRED COMBINED CYCLE; NUCLEAR", "STATUS": "OP", "COUNTY": "CITRUS", "COUNTYFIPS": "12017", "COUNTRY": "USA", "LATITUDE": 28.967151409000053, "LONGITUDE": -82.698642266999968, "NAICS_CODE": "221112", "NAICS_DESC": "FOSSIL FUEL ELECTRIC POWER GENERATION", "SOURCE": "EIA 860, EIA 923", "SOURCEDATE": "2019-09-03T00:00:00Z", "VAL_METHOD": "IMAGERY", "VAL_DATE": "2015-04-07T00:00:00Z", "WEBSITE": "http://www.duke-energy.com/power-plants/nuclear/crystal-river.asp", "OPERATOR": "DUKE ENERGY FLORIDA, LLC", "OPERAT_ID": "6455", "OPER_CAP": 3449.0, "SUMMER_CAP": 3054.0, "WINTER_CAP": 3304.0, "PLAN_CAP": 0.0, "RETIRE_CAP": 1854.7, "GEN_UNITS": 8.0, "PLAN_UNIT": 0.0, "RETIR_UNIT": 3.0, "PRIM_FUEL": "BIT", "SEC_FUEL": "NG", "COAL_USED": 3745945.0, "NGAS_USED": 9764454.0, "OIL_USED": 54997.0, "NET_GEN": 9821522.004000001, "CAP_FACTOR": 0.36711798001273899, "SUB_1": "CRYSTAL RIVER", "SUB_2": "NOT AVAILABLE", "LINES": 1.0, "SOURCE_LAT": 28.9656, "SOURC_LONG": -82.6977 }, "geometry": { "type": "Point", "coordinates": [ -82.698642266999968, 28.967151409000053 ] } },
{ "type": "Feature", "properties": { "OBJECTID": 4227, "PLANT_CODE": "649", "NAME": "VOGTLE", "ADDRESS": "7821 RIVER ROAD", "CITY": "WAYNESBORO", "STATE": "GA", "ZIP": "30830", "TELEPHONE": "(888) 655-5888", "TYPE": "NUCLEAR", "STATUS": "OP", "COUNTY": "BURKE", "COUNTYFIPS": "13033", "COUNTRY": "USA", "LATITUDE": 33.1427, "LONGITUDE": -81.7625, "NAICS_CODE": "221113", "NAICS_DESC": "NUCLEAR ELECTRIC POWER GENERATION", "SOURCE": "EIA 860, EIA 923", "SOURCEDATE": "2019-09-03T00:00:00Z", "VAL_METHOD": "IMAGERY/OTHER", "VAL_DATE": "2014-04-25T00:00:00Z", "WEBSITE": "http://www.georgiapower.com/", "OPERATOR": "GEORGIA POWER CO", "OPERAT_ID": "7140", "OPER_CAP": 2320.0, "SUMMER_CAP": 2302.0, "WINTER_CAP": 2302.0, "PLAN_CAP": 2200.0, "RETIRE_CAP": 0.0, "GEN_UNITS": 2.0, "PLAN_UNIT": 2.0, "RETIR_UNIT": 0.0, "PRIM_FUEL": "NUC", "SEC_FUEL": "NOT AVAILABLE", "COAL_USED": 0.0, "NGAS_USED": 0.0, "OIL_USED": 0.0, "NET_GEN": 19959126.0, "CAP_FACTOR": 0.98976500482010898, "SUB_1": "VOGTLE", "SUB_2": "NOT AVAILABLE", "LINES": 1.0, "SOURCE_LAT": 33.1427, "SOURC_LONG": -81.7625 }, "geometry": { "type": "Point", "coordinates": [ -81.7625, 33.1427 ] } },
{ "type": "Feature", "properties": { "OBJECTID": 4316, "PLANT_CODE": "869", "NAME": "DRESDEN GENERATING STATION", "ADDRESS": "12RR1 MORRIS", "CITY": "MORRIS", "STATE": "IL", "ZIP": "60450", "TELEPHONE": "NOT AVAILABLE", "TYPE": "NUCLEAR", "STATUS": "OP", "COUNTY": "GRUNDY", "COUNTYFIPS": "17063", "COUNTRY": "USA", "LATITUDE": 41.39, "LONGITUDE": -88.27, "NAICS_CODE": "221113", "NAICS_DESC": "NUCLEAR ELECTRIC POWER GENERATION", "SOURCE": "EIA 860, EIA 923", "SOURCEDATE": "2019-09-03T00:00:00Z", "VAL_METHOD": "IMAGERY", "VAL_DATE": "2015-03-27T00:00:00Z", "WEBSITE": "NOT AVAILABLE", "OPERATOR": "EXELON NUCLEAR", "OPERAT_ID": "55951", "OPER_CAP": 2018.6, "SUMMER_CAP": 1797.0, "WINTER_CAP": 1805.0, "PLAN_CAP": 0.0, "RETIRE_CAP": 0.0, "GEN_UNITS": 2.0, "PLAN_UNIT": 0.0, "RETIR_UNIT": 0.0, "PRIM_FUEL": "NUC", "SEC_FUEL": "NOT AVAILABLE", "COAL_USED": 0.0, "NGAS_USED": 0.0, "OIL_USED": 0.0, "NET_GEN": 15538135.0, "CAP_FACTOR": 0.98706716928010396, "SUB_1": "UNKNOWN124335", "SUB_2": "DRESDEN STATION", "LINES": 1.0, "SOURCE_LAT": 41.39, "SOURC_LONG": -88.27 }, "geometry": { "type": "Point", "coordinates": [ -88.27, 41.39 ] } },
{ "type": "Feature", "properties": { "OBJECTID": 4322, "PLANT_CODE": "880", "NAME": "QUAD CITIES GENERATING STATION", "ADDRESS": "22710 206 AVE N", "CITY": "CORDOVA", "STATE": "IL", "ZIP": "61242", "TELEPHONE": "NOT AVAILABLE", "TYPE": "NUCLEAR", "STATUS": "OP", "COUNTY": "ROCK ISLAND", "COUNTYFIPS": "17161", "COUNTRY": "USA", "LATITUDE": 41.72611, "LONGITUDE": -90.31028, "NAICS_CODE": "221113", "NAICS_DESC": "NUCLEAR ELECTRIC POWER GENERATION", "SOURCE": "EIA 860, EIA 923", "SOURCEDATE": "2019-09-03T00:00:00Z", "VAL_METHOD": "IMAGERY", "VAL_DATE": "2015-03-27T00:00:00Z", "WEBSITE": "NOT AVAILABLE", "OPERATOR": "EXELON NUCLEAR", "OPERAT_ID": "55951", "OPER_CAP": 2018.6, "SUMMER_CAP": 1819.0, "WINTER_CAP": 1819.0, "PLAN_CAP": 0.0, "RETIRE_CAP": 0.0, "GEN_UNITS": 2.0, "PLAN_UNIT": 0.0, "RETIR_UNIT": 0.0, "PRIM_FUEL": "NUC", "SEC_FUEL": "NOT AVAILABLE", "COAL_USED": 0.0, "NGAS_USED": 0.0, "OIL_USED": 0.0, "NET_GEN": 15476458.0, "CAP_FACTOR": 0.97125835611417799, "SUB_1": "QUAD CITIES", "SUB_2": "NOT AVAILABLE", "LINES": 1.0, "SOURCE_LAT": 41.726111, "SOURC_LONG": -90.310278 }, "geometry": { "type": "Point", "coordinates": [ -90.31028, 41.72611 ] } },
{ "type": "Feature", "properties": { "OBJECTID": 4399, "PLANT_CODE": "1060", "NAME": "DUANE ARNOLD ENERGY CENTER", "ADDRESS": "3277 DAEC RD", "CITY": "PALO", "STATE": "IA", "ZIP": "52324", "TELEPHONE": "(319) 851-7612", "TYPE": "NUCLEAR", "STATUS": "OP", "COUNTY": "LINN", "COUNTYFIPS": "19113", "COUNTRY": "USA", "LATITUDE": 42.100713793000068, "LONGITUDE": -91.777001919999975, "NAICS_CODE": "221113", "NAICS_DESC": "NUCLEAR ELECTRIC POWER GENERATION", "SOURCE": "EIA 860, EIA 923", "SOURCEDATE": "2019-09-03T00:00:00Z", "VAL_METHOD": "IMAGERY/OTHER", "VAL_DATE": "2015-09-09T00:00:00Z", "WEBSITE": "http://www.nexteraenergyresources.com/what/nuclear_duanearnold.shtml", "OPERATOR": "NEXTERA ENERGY DUANE ARNOLD LLC", "OPERAT_ID": "55269", "OPER_CAP": 679.5, "SUMMER_CAP": 601.4, "WINTER_CAP": 622.1, "PLAN_CAP": 0.0, "RETIRE_CAP": 0.0, "GEN_UNITS": 1.0, "PLAN_UNIT": 0.0, "RETIR_UNIT": 0.0, "PRIM_FUEL": "NUC", "SEC_FUEL": "NOT AVAILABLE", "COAL_USED": 0.0, "NGAS_USED": 0.0, "OIL_USED": 0.0, "NET_GEN": 4895399.0, "CAP_FACTOR": 0.92922431373978198, "SUB_1": "ARNOLD", "SUB_2": "NOT AVAILABLE", "LINES": 1.0, "SOURCE_LAT": 42.1011, "SOURC_LONG": -91.7781 }, "geometry": { "type": "Point", "coordinates": [ -91.777001919999975, 42.100713793000068 ] } },
{ "type": "Feature", "properties": { "OBJECTID": 4654, "PLANT_CODE": "1590", "NAME": "PILGRIM NUCLEAR POWER STATION", "ADDRESS": "600 ROCKY HILL ROAD", "CITY": "PLYMOUTH", "STATE": "MA", "ZIP": "02360", "TELEPHONE": "NOT AVAILABLE", "TYPE": "NUCLEAR", "STATUS": "OP", "COUNTY": "PLYMOUTH", "COUNTYFIPS": "25023", "COUNTRY": "USA", "LATITUDE": 41.944121227000039, "LONGITUDE": -70.578154664999943, "NAICS_CODE": "221113", "NAICS_DESC": "NUCLEAR ELECTRIC POWER GENERATION", "SOURCE": "EIA 860, EIA 923", "SOURCEDATE": "2019-09-03T00:00:00Z", "VAL_METHOD": "IMAGERY", "VAL_DATE": "2017-03-27T00:00:00Z", "WEBSITE": "NOT AVAILABLE", "OPERATOR": "ENTERGY NUCLEAR GENERATION CO", "OPERAT_ID": "29926", "OPER_CAP": 670.0, "SUMMER_CAP": 679.0, "WINTER_CAP": 685.1, "PLAN_CAP": 0.0, "RETIRE_CAP": 0.0, "GEN_UNITS": 1.0, "PLAN_UNIT": 0.0, "RETIR_UNIT": 0.0, "PRIM_FUEL": "NUC", "SEC_FUEL": "NOT AVAILABLE", "COAL_USED": 0.0, "NGAS_USED": 0.0, "OIL_USED": 0.0, "NET_GEN": 4441563.0, "CAP_FACTOR": 0.74672715718118898, "SUB_1": "UNKNOWN133429", "SUB_2": "NOT AVAILABLE", "LINES": 1.0, "SOURCE_LAT": 41.9438, "SOURC_LONG": -70.578 }, "geometry": { "type": "Point", "coordinates": [ -70.578154664999943, 41.944121227000039 ] } },
{ "type": "Feature", "properties": { "OBJECTID": 4697, "PLANT_CODE": "1715", "NAME": "PALISADES", "ADDRESS": "27780 BLUE STAR MEMORIAL HWY.", "CITY": "COVERT", "STATE": "MI", "ZIP": "49043", "TELEPHONE": "NOT AVAILABLE", "TYPE": "NUCLEAR", "STATUS": "OP", "COUNTY": "VAN BUREN", "COUNTYFIPS": "26159", "COUNTRY": "USA", "LATITUDE": 42.323483259000056, "LONGITUDE": -86.314380145999962, "NAICS_CODE": "221113", "NAICS_DESC": "NUCLEAR ELECTRIC POWER GENERATION", "SOURCE": "EIA 860, EIA 923", "SOURCEDATE": "2019-09-03T00:00:00Z", "VAL_METHOD": "IMAGERY", "VAL_DATE": "2015-07-10T00:00:00Z", "WEBSITE": "http://www.palisadespower.com/", "OPERATOR": "ENTERGY NUCLEAR PALISADES LLC", "OPERAT_ID": "56192", "OPER_CAP": 811.8, "SUMMER_CAP": 804.2, "WINTER_CAP": 814.3, "PLAN_CAP": 0.0, "RETIRE_CAP": 0.0, "GEN_UNITS": 1.0, "PLAN_UNIT": 0.0, "RETIR_UNIT": 0.0, "PRIM_FUEL": "NUC", "SEC_FUEL": "NOT AVAILABLE", "COAL_USED": 0.0, "NGAS_USED": 0.0, "OIL_USED": 0.0, "NET_GEN": 5455940.0, "CAP_FACTOR": 0.7744643134957, "SUB_1": "UNKNOWN128992", "SUB_2": "NOT AVAILABLE", "LINES": 1.0, "SOURCE_LAT": 42.323, "SOURC_LONG": -86.3146 }, "geometry": { "type": "Point", "coordinates": [ -86.314380145999962, 42.323483259000056 ] } },
{ "type": "Feature", "properties": { "OBJECTID": 4708, "PLANT_CODE": "1729", "NAME": "FERMI", "ADDRESS": "6400 N DIXIE HWY", "CITY": "FRENCHTOWN TWP", "STATE": "MI", "ZIP": "48166", "TELEPHONE": "NOT AVAILABLE", "TYPE": "NUCLEAR; PETROLEUM LIQUIDS", "STATUS": "OP", "COUNTY": "MONROE", "COUNTYFIPS": "26115", "COUNTRY": "USA", "LATITUDE": 41.963130044000025, "LONGITUDE": -83.257531944999982, "NAICS_CODE": "221113", "NAICS_DESC": "NUCLEAR ELECTRIC POWER GENERATION", "SOURCE": "EIA 860, EIA 923", "SOURCEDATE": "2019-09-03T00:00:00Z", "VAL_METHOD": "IMAGERY", "VAL_DATE": "2015-07-13T00:00:00Z", "WEBSITE": "NOT AVAILABLE", "OPERATOR": "DTE ELECTRIC COMPANY", "OPERAT_ID": "5109", "OPER_CAP": 1281.0, "SUMMER_CAP": 1192.0, "WINTER_CAP": 1236.0, "PLAN_CAP": 0.0, "RETIRE_CAP": 0.0, "GEN_UNITS": 5.0, "PLAN_UNIT": 0.0, "RETIR_UNIT": 0.0, "PRIM_FUEL": "NUC", "SEC_FUEL": "DFO", "COAL_USED": 0.0, "NGAS_USED": 0.0, "OIL_USED": 36530.0, "NET_GEN": 7420896.02, "CAP_FACTOR": 0.71068309467990598, "SUB_1": "UNKNOWN128333", "SUB_2": "UNKNOWN128955", "LINES": 1.0, "SOURCE_LAT": 41.9631, "SOURC_LONG": -83.2581 }, "geometry": { "type": "Point", "coordinates": [ -83.257531944999982, 41.963130044000025 ] } },
{ "type": "Feature", "properties": { "OBJECTID": 4803, "PLANT_CODE": "1922", "NAME": "MONTICELLO NUCLEAR FACILITY", "ADDRESS": "2807 W. COUNTY RD 75", "CITY": "MONTICELLO", "STATE": "MN", "ZIP": "55362", "TELEPHONE": "(800) 895-4999", "TYPE": "NUCLEAR", "STATUS": "OP", "COUNTY": "WRIGHT", "COUNTYFIPS": "27171", "COUNTRY": "USA", "LATITUDE": 45.334045611000079, "LONGITUDE": -93.849214434999965, "NAICS_CODE": "221113", "NAICS_DESC": "NUCLEAR ELECTRIC POWER GENERATION", "SOURCE": "EIA 860, EIA 923", "SOURCEDATE": "2019-09-03T00:00:00Z", "VAL_METHOD": "IMAGERY", "VAL_DATE": "2015-07-29T00:00:00Z", "WEBSITE": "http://www.xcelenergy.com/Company/Operations/Monticello_Nuclear_Generating_Plant", "OPERATOR": "NORTHERN STATES POWER CO - MINNESOTA", "OPERAT_ID": "13781", "OPER_CAP": 685.0, "SUMMER_CAP": 617.0, "WINTER_CAP": 646.0, "PLAN_CAP": 0.0, "RETIRE_CAP": 0.0, "GEN_UNITS": 1.0, "PLAN_UNIT": 0.0, "RETIR_UNIT": 0.0, "PRIM_FUEL": "NUC", "SEC_FUEL": "NOT AVAILABLE", "COAL_USED": 0.0, "NGAS_USED": 0.0, "OIL_USED": 0.0, "NET_GEN": 5618024.0, "CAP_FACTOR": 1.0394277806147001, "SUB_1": "MONTICELLO", "SUB_2": "NOT AVAILABLE", "LINES": 1.0, "SOURCE_LAT": 45.3338, "SOURC_LONG": -93.8493 }, "geometry": { "type": "Point", "coordinates": [ -93.849214434999965, 45.334045611000079 ] } },
{ "type": "Feature", "properties": { "OBJECTID": 4804, "PLANT_CODE": "1925", "NAME": "PRAIRIE ISLAND", "ADDRESS": "1717 WAKONADE DR. EAST", "CITY": "WELCH", "STATE": "MN", "ZIP": "55066", "TELEPHONE": "(800) 895-4999", "TYPE": "NUCLEAR", "STATUS": "OP", "COUNTY": "GOODHUE", "COUNTYFIPS": "27049", "COUNTRY": "USA", "LATITUDE": 44.622, "LONGITUDE": -92.6333, "NAICS_CODE": "221113", "NAICS_DESC": "NUCLEAR ELECTRIC POWER GENERATION", "SOURCE": "EIA 860, EIA 923", "SOURCEDATE": "2019-09-03T00:00:00Z", "VAL_METHOD": "IMAGERY", "VAL_DATE": "2015-07-29T00:00:00Z", "WEBSITE": "http://www.xcelenergy.com/Company/Operations/Prairie_Island_Nuclear_Generating_Plant", "OPERATOR": "NORTHERN STATES POWER CO - MINNESOTA", "OPERAT_ID": "13781", "OPER_CAP": 1186.2, "SUMMER_CAP": 1040.0, "WINTER_CAP": 1092.0, "PLAN_CAP": 0.0, "RETIRE_CAP": 0.0, "GEN_UNITS": 2.0, "PLAN_UNIT": 0.0, "RETIR_UNIT": 0.0, "PRIM_FUEL": "NUC", "SEC_FUEL": "NOT AVAILABLE", "COAL_USED": 0.0, "NGAS_USED": 0.0, "OIL_USED": 0.0, "NET_GEN": 8983305.0, "CAP_FACTOR": 0.98604945995784998, "SUB_1": "UNKNOWN129369", "SUB_2": "NOT AVAILABLE", "LINES": 1.0, "SOURCE_LAT": 44.622, "SOURC_LONG": -92.6333 }, "geometry": { "type": "Point", "coordinates": [ -92.6333, 44.622 ] } },
{ "type": "Feature", "properties": { "OBJECTID": 4979, "PLANT_CODE": "2289", "NAME": "FORT CALHOUN", "ADDRESS": "9750 POWER LANE", "CITY": "BLAIR", "STATE": "NE", "ZIP": "68008", "TELEPHONE": "NOT AVAILABLE", "TYPE": "NUCLEAR", "STATUS": "RE", "COUNTY": "WASHINGTON", "COUNTYFIPS": "31177", "COUNTRY": "USA", "LATITUDE": 41.52052, "LONGITUDE": -96.07751, "NAICS_CODE": "221113", "NAICS_DESC": "NUCLEAR ELECTRIC POWER GENERATION", "SOURCE": "EIA 860, EIA 923", "SOURCEDATE": "2019-09-03T00:00:00Z", "VAL_METHOD": "IMAGERY", "VAL_DATE": "2015-08-28T00:00:00Z", "WEBSITE": "NOT AVAILABLE", "OPERATOR": "OMAHA PUBLIC POWER DISTRICT", "OPERAT_ID": "14127", "OPER_CAP": 0.0, "SUMMER_CAP": 0.0, "WINTER_CAP": 0.0, "PLAN_CAP": 0.0, "RETIRE_CAP": 502.0, "GEN_UNITS": 0.0, "PLAN_UNIT": 0.0, "RETIR_UNIT": 1.0, "PRIM_FUEL": "NUC", "SEC_FUEL": "NOT AVAILABLE", "COAL_USED": 0.0, "NGAS_USED": 0.0, "OIL_USED": 0.0, "NET_GEN": -999999.0, "CAP_FACTOR": -999999.0, "SUB_1": "FORT CALHOUN", "SUB_2": "NOT AVAILABLE", "LINES": 1.0, "SOURCE_LAT": 41.520522, "SOURC_LONG": -96.077511 }, "geometry": { "type": "Point", "coordinates": [ -96.07751, 41.52052 ] } },
{ "type": "Feature", "properties": { "OBJECTID": 5023, "PLANT_CODE": "2388", "NAME": "OYSTER CREEK", "ADDRESS": "PO BOX 388", "CITY": "FORKED RIVER", "STATE": "NJ", "ZIP": "08731", "TELEPHONE": "(609) 971-4000", "TYPE": "NUCLEAR", "STATUS": "RE", "COUNTY": "OCEAN", "COUNTYFIPS": "34029", "COUNTRY": "USA", "LATITUDE": 39.8143, "LONGITUDE": -74.2062, "NAICS_CODE": "221113", "NAICS_DESC": "NUCLEAR ELECTRIC POWER GENERATION", "SOURCE": "EIA 860, EIA 923", "SOURCEDATE": "2019-09-03T00:00:00Z", "VAL_METHOD": "IMAGERY", "VAL_DATE": "2015-09-08T00:00:00Z", "WEBSITE": "http://www.exeloncorp.com/PowerPlants/oystercreek/Pages/profile.aspx", "OPERATOR": "EXELON NUCLEAR", "OPERAT_ID": "55951", "OPER_CAP": 0.0, "SUMMER_CAP": 0.0, "WINTER_CAP": 0.0, "PLAN_CAP": 0.0, "RETIRE_CAP": 550.0, "GEN_UNITS": 0.0, "PLAN_UNIT": 0.0, "RETIR_UNIT": 1.0, "PRIM_FUEL": "NUC", "SEC_FUEL": "NOT AVAILABLE", "COAL_USED": 0.0, "NGAS_USED": 0.0, "OIL_USED": 0.0, "NET_GEN": 3540315.0, "CAP_FACTOR": -999999.0, "SUB_1": "OYSTER CREEK", "SUB_2": "NOT AVAILABLE", "LINES": 1.0, "SOURCE_LAT": 39.8143, "SOURC_LONG": -74.2062 }, "geometry": { "type": "Point", "coordinates": [ -74.2062, 39.8143 ] } },
{ "type": "Feature", "properties": { "OBJECTID": 5036, "PLANT_CODE": "2410", "NAME": "PSEG SALEM GENERATING STATION", "ADDRESS": "P O BOX 236 END OF BUTTONWOOD", "CITY": "HANCOCKS BRIDGE", "STATE": "NJ", "ZIP": "08038", "TELEPHONE": "(800) 436-7734", "TYPE": "NUCLEAR; PETROLEUM LIQUIDS", "STATUS": "OP", "COUNTY": "SALEM", "COUNTYFIPS": "34033", "COUNTRY": "USA", "LATITUDE": 39.463052035000032, "LONGITUDE": -75.535571571999981, "NAICS_CODE": "221113", "NAICS_DESC": "NUCLEAR ELECTRIC POWER GENERATION", "SOURCE": "EIA 860, EIA 923", "SOURCEDATE": "2019-09-03T00:00:00Z", "VAL_METHOD": "IMAGERY", "VAL_DATE": "2015-09-16T00:00:00Z", "WEBSITE": "https://www.pseg.com/family/power/nuclear/plants.jsp", "OPERATOR": "PSEG NUCLEAR LLC", "OPERAT_ID": "15478", "OPER_CAP": 2381.8, "SUMMER_CAP": 2366.6, "WINTER_CAP": 2366.6, "PLAN_CAP": 0.0, "RETIRE_CAP": 0.0, "GEN_UNITS": 3.0, "PLAN_UNIT": 0.0, "RETIR_UNIT": 0.0, "PRIM_FUEL": "NUC", "SEC_FUEL": "DFO", "COAL_USED": 0.0, "NGAS_USED": 0.0, "OIL_USED": 253.0, "NET_GEN": 18895042.0, "CAP_FACTOR": 0.91142071530473401, "SUB_1": "UNKNOWN132218", "SUB_2": "NOT AVAILABLE", "LINES": 1.0, "SOURCE_LAT": 39.4625, "SOURC_LONG": -75.5358 }, "geometry": { "type": "Point", "coordinates": [ -75.535571571999981, 39.463052035000032 ] } },
{ "type": "Feature", "properties": { "OBJECTID": 5050, "PLANT_CODE": "2497", "NAME": "INDIAN POINT 2", "ADDRESS": "BROADWAY & BLEAKLEY AVE", "CITY": "BUCHANAN", "STATE": "NY", "ZIP": "10511", "TELEPHONE": "NOT AVAILABLE", "TYPE": "NUCLEAR", "STATUS": "OP", "COUNTY": "WESTCHESTER", "COUNTYFIPS": "36119", "COUNTRY": "USA", "LATITUDE": 41.269220180000048, "LONGITUDE": -73.953935934999947, "NAICS_CODE": "221113", "NAICS_DESC": "NUCLEAR ELECTRIC POWER GENERATION", "SOURCE": "EIA 860, EIA 923", "SOURCEDATE": "2019-09-03T00:00:00Z", "VAL_METHOD": "IMAGERY", "VAL_DATE": "2015-05-14T00:00:00Z", "WEBSITE": "http://www.entergy-nuclear.com/plant_information/indian_point.aspx", "OPERATOR": "ENTERGY NUCLEAR INDIAN POINT 2", "OPERAT_ID": "6027", "OPER_CAP": 1299.0, "SUMMER_CAP": 1018.5, "WINTER_CAP": 1025.9, "PLAN_CAP": 0.0, "RETIRE_CAP": 0.0, "GEN_UNITS": 1.0, "PLAN_UNIT": 0.0, "RETIR_UNIT": 0.0, "PRIM_FUEL": "NUC", "SEC_FUEL": "NOT AVAILABLE", "COAL_USED": 0.0, "NGAS_USED": 0.0, "OIL_USED": 0.0, "NET_GEN": 8018479.0, "CAP_FACTOR": 0.898725070219209, "SUB_1": "BUCHANAN", "SUB_2": "NOT AVAILABLE", "LINES": 1.0, "SOURCE_LAT": 41.270556, "SOURC_LONG": -73.9527 }, "geometry": { "type": "Point", "coordinates": [ -73.953935934999947, 41.269220180000048 ] } },
{ "type": "Feature", "properties": { "OBJECTID": 5114, "PLANT_CODE": "2589", "NAME": "NINE MILE POINT NUCLEAR STATION", "ADDRESS": "PO BOX 63", "CITY": "LYCOMING", "STATE": "NY", "ZIP": "13093", "TELEPHONE": "(800) 483-3220", "TYPE": "NUCLEAR", "STATUS": "OP", "COUNTY": "OSWEGO", "COUNTYFIPS": "36075", "COUNTRY": "USA", "LATITUDE": 43.521013827000047, "LONGITUDE": -76.410320867999985, "NAICS_CODE": "221113", "NAICS_DESC": "NUCLEAR ELECTRIC POWER GENERATION", "SOURCE": "EIA 860, EIA 923", "SOURCEDATE": "2019-09-03T00:00:00Z", "VAL_METHOD": "IMAGERY", "VAL_DATE": "2015-05-11T00:00:00Z", "WEBSITE": "http://www.exeloncorp.com/PowerPlants/nine_mile_point/Pages/profile.aspx", "OPERATOR": "EXELON NUCLEAR", "OPERAT_ID": "55951", "OPER_CAP": 1901.1, "SUMMER_CAP": 1916.6, "WINTER_CAP": 1928.0, "PLAN_CAP": 0.0, "RETIRE_CAP": 0.0, "GEN_UNITS": 2.0, "PLAN_UNIT": 0.0, "RETIR_UNIT": 0.0, "PRIM_FUEL": "NUC", "SEC_FUEL": "NOT AVAILABLE", "COAL_USED": 0.0, "NGAS_USED": 0.0, "OIL_USED": 0.0, "NET_GEN": 15382830.0, "CAP_FACTOR": 0.91622186263060001, "SUB_1": "UNKNOWN125476", "SUB_2": "NINE MILE", "LINES": 1.0, "SOURCE_LAT": 43.5211, "SOURC_LONG": -76.41 }, "geometry": { "type": "Point", "coordinates": [ -76.410320867999985, 43.521013827000047 ] } },
{ "type": "Feature", "properties": { "OBJECTID": 5332, "PLANT_CODE": "3166", "NAME": "PEACH BOTTOM", "ADDRESS": "1840 LAY ROAD", "CITY": "DELTA", "STATE": "PA", "ZIP": "17314", "TELEPHONE": "NOT AVAILABLE", "TYPE": "NUCLEAR", "STATUS": "OP", "COUNTY": "YORK", "COUNTYFIPS": "42133", "COUNTRY": "USA", "LATITUDE": 39.75901742700006, "LONGITUDE": -76.268575176999946, "NAICS_CODE": "221113", "NAICS_DESC": "NUCLEAR ELECTRIC POWER GENERATION", "SOURCE": "EIA 860, EIA 923", "SOURCEDATE": "2019-09-03T00:00:00Z", "VAL_METHOD": "IMAGERY", "VAL_DATE": "2015-06-19T00:00:00Z", "WEBSITE": "http://www.exeloncorp.com/PowerPlants/peachbottom/Pages/profile.aspx", "OPERATOR": "EXELON NUCLEAR", "OPERAT_ID": "55951", "OPER_CAP": 2876.4, "SUMMER_CAP": 2450.4, "WINTER_CAP": 2682.0, "PLAN_CAP": 0.0, "RETIRE_CAP": 0.0, "GEN_UNITS": 2.0, "PLAN_UNIT": 0.0, "RETIR_UNIT": 0.0, "PRIM_FUEL": "NUC", "SEC_FUEL": "NOT AVAILABLE", "COAL_USED": 0.0, "NGAS_USED": 0.0, "OIL_USED": 0.0, "NET_GEN": 21680116.0, "CAP_FACTOR": 1.00999799492246, "SUB_1": "UNKNOWN125000", "SUB_2": "PEACH BOTTOM", "LINES": 1.0, "SOURCE_LAT": 39.758936, "SOURC_LONG": -76.268742 }, "geometry": { "type": "Point", "coordinates": [ -76.268575176999946, 39.75901742700006 ] } },
{ "type": "Feature", "properties": { "OBJECTID": 5344, "PLANT_CODE": "3251", "NAME": "H B ROBINSON", "ADDRESS": "3581 WEST ENTRANCE ROAD", "CITY": "HARTSVILLE", "STATE": "SC", "ZIP": "29550", "TELEPHONE": "NOT AVAILABLE", "TYPE": "CONVENTIONAL STEAM COAL; NATURAL GAS FIRED COMBUSTION TURBINE; NUCLEAR", "STATUS": "OP", "COUNTY": "DARLINGTON", "COUNTYFIPS": "45031", "COUNTRY": "USA", "LATITUDE": 34.402566796000031, "LONGITUDE": -80.158220235999977, "NAICS_CODE": "221113", "NAICS_DESC": "NUCLEAR ELECTRIC POWER GENERATION", "SOURCE": "EIA 860, EIA 923", "SOURCEDATE": "2019-09-03T00:00:00Z", "VAL_METHOD": "IMAGERY/OTHER", "VAL_DATE": "2014-06-09T00:00:00Z", "WEBSITE": "http://www.duke-energy.com/power-plants/nuclear/robinson.asp", "OPERATOR": "DUKE ENERGY PROGRESS - (NC)", "OPERAT_ID": "3046", "OPER_CAP": 768.6, "SUMMER_CAP": 741.0, "WINTER_CAP": 797.0, "PLAN_CAP": 0.0, "RETIRE_CAP": 222.9, "GEN_UNITS": 1.0, "PLAN_UNIT": 0.0, "RETIR_UNIT": 2.0, "PRIM_FUEL": "NUC", "SEC_FUEL": "BIT", "COAL_USED": 0.0, "NGAS_USED": 0.0, "OIL_USED": 0.0, "NET_GEN": 5276118.0, "CAP_FACTOR": 0.81281589115042596, "SUB_1": "UNKNOWN121495", "SUB_2": "NOT AVAILABLE", "LINES": 1.0, "SOURCE_LAT": 34.4017, "SOURC_LONG": -80.1589 }, "geometry": { "type": "Point", "coordinates": [ -80.158220235999977, 34.402566796000031 ] } },
{ "type": "Feature", "properties": { "OBJECTID": 5355, "PLANT_CODE": "3265", "NAME": "OCONEE", "ADDRESS": "7800 ROCHESTER HWY", "CITY": "SENECA", "STATE": "SC", "ZIP": "29672", "TELEPHONE": "NOT AVAILABLE", "TYPE": "NUCLEAR", "STATUS": "OP", "COUNTY": "OCONEE", "COUNTYFIPS": "45073", "COUNTRY": "USA", "LATITUDE": 34.79396089800008, "LONGITUDE": -82.89818358499997, "NAICS_CODE": "221113", "NAICS_DESC": "NUCLEAR ELECTRIC POWER GENERATION", "SOURCE": "EIA 860, EIA 923", "SOURCEDATE": "2019-09-03T00:00:00Z", "VAL_METHOD": "IMAGERY/OTHER", "VAL_DATE": "2014-06-11T00:00:00Z", "WEBSITE": "http://www.duke-energy.com/power-plants/nuclear/oconee.asp", "OPERATOR": "DUKE ENERGY CAROLINAS, LLC", "OPERAT_ID": "5416", "OPER_CAP": 2666.7, "SUMMER_CAP": 2554.0, "WINTER_CAP": 2618.0, "PLAN_CAP": 0.0, "RETIRE_CAP": 0.0, "GEN_UNITS": 3.0, "PLAN_UNIT": 0.0, "RETIR_UNIT": 0.0, "PRIM_FUEL": "NUC", "SEC_FUEL": "NOT AVAILABLE", "COAL_USED": 0.0, "NGAS_USED": 0.0, "OIL_USED": 0.0, "NET_GEN": 21294245.0, "CAP_FACTOR": 0.95178147448893802, "SUB_1": "UNKNOWN110410", "SUB_2": "NOT AVAILABLE", "LINES": 1.0, "SOURCE_LAT": 34.7939, "SOURC_LONG": -82.8986 }, "geometry": { "type": "Point", "coordinates": [ -82.89818358499997, 34.79396089800008 ] } },
{ "type": "Feature", "properties": { "OBJECTID": 5457, "PLANT_CODE": "3751", "NAME": "VERMONT YANKEE", "ADDRESS": "GOVERNOR HUNT ROAD", "CITY": "VERNON", "STATE": "VT", "ZIP": "05354", "TELEPHONE": "NOT AVAILABLE", "TYPE": "NUCLEAR", "STATUS": "NOT AVAILABLE", "COUNTY": "WINDHAM", "COUNTYFIPS": "50025", "COUNTRY": "USA", "LATITUDE": 42.778914015000055, "LONGITUDE": -72.51326434799995, "NAICS_CODE": "NOT AVAILABLE", "NAICS_DESC": "NOT AVAILABLE", "SOURCE": "EIA 860, EIA 923", "SOURCEDATE": "2015-10-01T00:00:00Z", "VAL_METHOD": "IMAGERY/OTHER", "VAL_DATE": "2017-04-27T00:00:00Z", "WEBSITE": "http://www.entergy-nuclear.com/plant_information/vermont_yankee.aspx", "OPERATOR": "ENTERGY NUCLEAR VERMONT YANKEE", "OPERAT_ID": "5956", "OPER_CAP": -999999.0, "SUMMER_CAP": -999999.0, "WINTER_CAP": -999999.0, "PLAN_CAP": 0.0, "RETIRE_CAP": 0.0, "GEN_UNITS": -999999.0, "PLAN_UNIT": 0.0, "RETIR_UNIT": 1.0, "PRIM_FUEL": "NUC", "SEC_FUEL": "NOT AVAILABLE", "COAL_USED": 0.0, "NGAS_USED": 0.0, "OIL_USED": 0.0, "NET_GEN": 5060582.0, "CAP_FACTOR": -999999.0, "SUB_1": "VERMONT YANKEE", "SUB_2": "NOT AVAILABLE", "LINES": 1.0, "SOURCE_LAT": 42.77891402, "SOURC_LONG": -72.51326435 }, "geometry": { "type": "Point", "coordinates": [ -72.51326434799995, 42.778914015000055 ] } },
{ "type": "Feature", "properties": { "OBJECTID": 5484, "PLANT_CODE": "3806", "NAME": "SURRY", "ADDRESS": "5570 HOG ISLAND ROAD", "CITY": "SURRY", "STATE": "VA", "ZIP": "23883", "TELEPHONE": "(757) 357-5410", "TYPE": "NUCLEAR", "STATUS": "OP", "COUNTY": "SURRY", "COUNTYFIPS": "51181", "COUNTRY": "USA", "LATITUDE": 37.16578472100008, "LONGITUDE": -76.697856417999958, "NAICS_CODE": "221113", "NAICS_DESC": "NUCLEAR ELECTRIC POWER GENERATION", "SOURCE": "EIA 860, EIA 923", "SOURCEDATE": "2019-09-03T00:00:00Z", "VAL_METHOD": "IMAGERY/OTHER", "VAL_DATE": "2017-04-27T00:00:00Z", "WEBSITE": "https://www.dom.com/about/stations/nuclear/surry/index.jsp", "OPERATOR": "VIRGINIA ELECTRIC & POWER CO", "OPERAT_ID": "19876", "OPER_CAP": 1695.0, "SUMMER_CAP": 1676.0, "WINTER_CAP": 1750.0, "PLAN_CAP": 0.0, "RETIRE_CAP": 0.0, "GEN_UNITS": 2.0, "PLAN_UNIT": 0.0, "RETIR_UNIT": 0.0, "PRIM_FUEL": "NUC", "SEC_FUEL": "NOT AVAILABLE", "COAL_USED": 0.0, "NGAS_USED": 0.0, "OIL_USED": 0.0, "NET_GEN": 13219137.0, "CAP_FACTOR": 0.90037822440906301, "SUB_1": "SURRY", "SUB_2": "NOT AVAILABLE", "LINES": 1.0, "SOURCE_LAT": 37.1661, "SOURC_LONG": -76.6986 }, "geometry": { "type": "Point", "coordinates": [ -76.697856417999958, 37.16578472100008 ] } },
{ "type": "Feature", "properties": { "OBJECTID": 5542, "PLANT_CODE": "4046", "NAME": "POINT BEACH NUCLEAR PLANT", "ADDRESS": "6610 NUCLEAR ROAD", "CITY": "TWO RIVERS", "STATE": "WI", "ZIP": "54241", "TELEPHONE": "NOT AVAILABLE", "TYPE": "NUCLEAR; PETROLEUM LIQUIDS", "STATUS": "OP", "COUNTY": "MANITOWOC", "COUNTYFIPS": "55071", "COUNTRY": "USA", "LATITUDE": 44.281099687000051, "LONGITUDE": -87.536566874999949, "NAICS_CODE": "221113", "NAICS_DESC": "NUCLEAR ELECTRIC POWER GENERATION", "SOURCE": "EIA 860, EIA 923", "SOURCEDATE": "2019-09-03T00:00:00Z", "VAL_METHOD": "IMAGERY/OTHER", "VAL_DATE": "2015-09-17T00:00:00Z", "WEBSITE": "http://www.nexteraenergyresources.com/what/nuclear_pointbeach.shtml", "OPERATOR": "NEXTERA ENERGY POINT BEACH LLC", "OPERAT_ID": "55906", "OPER_CAP": 1311.0, "SUMMER_CAP": 1210.8, "WINTER_CAP": 1227.6, "PLAN_CAP": 0.0, "RETIRE_CAP": 0.0, "GEN_UNITS": 3.0, "PLAN_UNIT": 0.0, "RETIR_UNIT": 0.0, "PRIM_FUEL": "NUC", "SEC_FUEL": "DFO", "COAL_USED": 0.0, "NGAS_USED": 0.0, "OIL_USED": 321.0, "NET_GEN": 10128796.0, "CAP_FACTOR": 0.95495147930422197, "SUB_1": "POINT BEACH STATION", "SUB_2": "NOT AVAILABLE", "LINES": 1.0, "SOURCE_LAT": 44.2806, "SOURC_LONG": -87.5369 }, "geometry": { "type": "Point", "coordinates": [ -87.536566874999949, 44.281099687000051 ] } },
{ "type": "Feature", "properties": { "OBJECTID": 5593, "PLANT_CODE": "4270", "NAME": "WATERFORD 3", "ADDRESS": "17265 RIVER ROAD HWY 18", "CITY": "KILLONA", "STATE": "LA", "ZIP": "70057", "TELEPHONE": "NOT AVAILABLE", "TYPE": "NUCLEAR", "STATUS": "OP", "COUNTY": "ST. CHARLES", "COUNTYFIPS": "22089", "COUNTRY": "USA", "LATITUDE": 29.994770122000034, "LONGITUDE": -90.471379242999944, "NAICS_CODE": "221113", "NAICS_DESC": "NUCLEAR ELECTRIC POWER GENERATION", "SOURCE": "EIA 860, EIA 923", "SOURCEDATE": "2019-09-03T00:00:00Z", "VAL_METHOD": "IMAGERY/OTHER", "VAL_DATE": "2014-07-01T00:00:00Z", "WEBSITE": "http://www.entergy-louisiana.com/", "OPERATOR": "ENTERGY LOUISIANA LLC", "OPERAT_ID": "11241", "OPER_CAP": 1199.8, "SUMMER_CAP": 1165.4, "WINTER_CAP": 1177.0, "PLAN_CAP": 0.0, "RETIRE_CAP": 0.0, "GEN_UNITS": 1.0, "PLAN_UNIT": 0.0, "RETIR_UNIT": 0.0, "PRIM_FUEL": "NUC", "SEC_FUEL": "NOT AVAILABLE", "COAL_USED": 0.0, "NGAS_USED": 0.0, "OIL_USED": 0.0, "NET_GEN": 10152586.0, "CAP_FACTOR": 0.99448344308066805, "SUB_1": "UNKNOWN112613", "SUB_2": "NOT AVAILABLE", "LINES": 1.0, "SOURCE_LAT": 29.995267, "SOURC_LONG": -90.471581 }, "geometry": { "type": "Point", "coordinates": [ -90.471379242999944, 29.994770122000034 ] } },
{ "type": "Feature", "properties": { "OBJECTID": 5598, "PLANT_CODE": "6000", "NAME": "DONALD C COOK", "ADDRESS": "RED ARROW HIGHWAY", "CITY": "BRIDGMAN", "STATE": "MI", "ZIP": "49106", "TELEPHONE": "NOT AVAILABLE", "TYPE": "NUCLEAR", "STATUS": "OP", "COUNTY": "BERRIEN", "COUNTYFIPS": "26021", "COUNTRY": "USA", "LATITUDE": 41.9756, "LONGITUDE": -86.56521, "NAICS_CODE": "221113", "NAICS_DESC": "NUCLEAR ELECTRIC POWER GENERATION", "SOURCE": "EIA 860, EIA 923", "SOURCEDATE": "2019-09-03T00:00:00Z", "VAL_METHOD": "IMAGERY", "VAL_DATE": "2015-07-13T00:00:00Z", "WEBSITE": "https://www.indianamichiganpower.com/", "OPERATOR": "INDIANA MICHIGAN POWER CO", "OPERAT_ID": "9324", "OPER_CAP": 2285.3, "SUMMER_CAP": 2177.0, "WINTER_CAP": 2278.0, "PLAN_CAP": 0.0, "RETIRE_CAP": 0.0, "GEN_UNITS": 2.0, "PLAN_UNIT": 0.0, "RETIR_UNIT": 0.0, "PRIM_FUEL": "NUC", "SEC_FUEL": "NOT AVAILABLE", "COAL_USED": 0.0, "NGAS_USED": 0.0, "OIL_USED": 0.0, "NET_GEN": 17610812.0, "CAP_FACTOR": 0.92345735721941502, "SUB_1": "COOK", "SUB_2": "COOK", "LINES": 1.0, "SOURCE_LAT": 41.975604, "SOURC_LONG": -86.565206 }, "geometry": { "type": "Point", "coordinates": [ -86.56521, 41.9756 ] } },
{ "type": "Feature", "properties": { "OBJECTID": 5599, "PLANT_CODE": "6001", "NAME": "JOSEPH M FARLEY", "ADDRESS": "7388 NORTH STATE HIGHWAY 95", "CITY": "COLUMBIA", "STATE": "AL", "ZIP": "36319", "TELEPHONE": "(334) 899-5156", "TYPE": "NUCLEAR", "STATUS": "OP", "COUNTY": "HOUSTON", "COUNTYFIPS": "01069", "COUNTRY": "USA", "LATITUDE": 31.223069512000052, "LONGITUDE": -85.112334429999976, "NAICS_CODE": "221113", "NAICS_DESC": "NUCLEAR ELECTRIC POWER GENERATION", "SOURCE": "EIA 860, EIA 923", "SOURCEDATE": "2019-09-03T00:00:00Z", "VAL_METHOD": "IMAGERY/OTHER", "VAL_DATE": "2014-04-23T00:00:00Z", "WEBSITE": "http://www.southerncompany.com/about-us/our-business/southern-nuclear/farley.cshtml", "OPERATOR": "ALABAMA POWER CO", "OPERAT_ID": "195", "OPER_CAP": 1776.4, "SUMMER_CAP": 1751.0, "WINTER_CAP": 1751.0, "PLAN_CAP": 0.0, "RETIRE_CAP": 0.0, "GEN_UNITS": 2.0, "PLAN_UNIT": 0.0, "RETIR_UNIT": 0.0, "PRIM_FUEL": "NUC", "SEC_FUEL": "NOT AVAILABLE", "COAL_USED": 0.0, "NGAS_USED": 0.0, "OIL_USED": 0.0, "NET_GEN": 14065046.0, "CAP_FACTOR": 0.91696108420758904, "SUB_1": "UNKNOWN108997", "SUB_2": "NOT AVAILABLE", "LINES": 1.0, "SOURCE_LAT": 31.2231, "SOURC_LONG": -85.1116 }, "geometry": { "type": "Point", "coordinates": [ -85.112334429999976, 31.223069512000052 ] } },
{ "type": "Feature", "properties": { "OBJECTID": 5604, "PLANT_CODE": "6011", "NAME": "CALVERT CLIFFS NUCLEAR POWER PLANT", "ADDRESS": "1650 CALVERT CLIFFS PARKWAY", "CITY": "LUSBY", "STATE": "MD", "ZIP": "20657", "TELEPHONE": "(800) 483-3220", "TYPE": "NUCLEAR", "STATUS": "OP", "COUNTY": "CALVERT", "COUNTYFIPS": "24009", "COUNTRY": "USA", "LATITUDE": 38.434874756000056, "LONGITUDE": -76.441391015999955, "NAICS_CODE": "221113", "NAICS_DESC": "NUCLEAR ELECTRIC POWER GENERATION", "SOURCE": "EIA 860, EIA 923", "SOURCEDATE": "2019-09-03T00:00:00Z", "VAL_METHOD": "IMAGERY", "VAL_DATE": "2017-03-30T00:00:00Z", "WEBSITE": "http://www.exeloncorp.com/PowerPlants/calvert/Pages/profile.aspx", "OPERATOR": "EXELON NUCLEAR", "OPERAT_ID": "55951", "OPER_CAP": 1828.7, "SUMMER_CAP": 1725.8, "WINTER_CAP": 1768.0, "PLAN_CAP": 0.0, "RETIRE_CAP": 0.0, "GEN_UNITS": 2.0, "PLAN_UNIT": 0.0, "RETIR_UNIT": 0.0, "PRIM_FUEL": "NUC", "SEC_FUEL": "NOT AVAILABLE", "COAL_USED": 0.0, "NGAS_USED": 0.0, "OIL_USED": 0.0, "NET_GEN": 14987931.0, "CAP_FACTOR": 0.99139589025220798, "SUB_1": "CALVERT CLIFFS", "SUB_2": "NOT AVAILABLE", "LINES": 1.0, "SOURCE_LAT": 38.4344, "SOURC_LONG": -76.4417 }, "geometry": { "type": "Point", "coordinates": [ -76.441391015999955, 38.434874756000056 ] } },
{ "type": "Feature", "properties": { "OBJECTID": 5606, "PLANT_CODE": "6014", "NAME": "BRUNSWICK NUCLEAR", "ADDRESS": "P. O. BOX 10429", "CITY": "SOUTHPORT", "STATE": "NC", "ZIP": "28461", "TELEPHONE": "(919) 546-2830", "TYPE": "NUCLEAR", "STATUS": "OP", "COUNTY": "BRUNSWICK", "COUNTYFIPS": "37019", "COUNTRY": "USA", "LATITUDE": 33.958706414000062, "LONGITUDE": -78.010145050999938, "NAICS_CODE": "221113", "NAICS_DESC": "NUCLEAR ELECTRIC POWER GENERATION", "SOURCE": "EIA 860, EIA 923", "SOURCEDATE": "2019-09-03T00:00:00Z", "VAL_METHOD": "IMAGERY", "VAL_DATE": "2014-04-11T00:00:00Z", "WEBSITE": "http://www.duke-energy.com/power-plants/nuclear/brunswick.asp", "OPERATOR": "DUKE ENERGY PROGRESS - (NC)", "OPERAT_ID": "3046", "OPER_CAP": 2003.2, "SUMMER_CAP": 1870.0, "WINTER_CAP": 1928.0, "PLAN_CAP": 0.0, "RETIRE_CAP": 0.0, "GEN_UNITS": 2.0, "PLAN_UNIT": 0.0, "RETIR_UNIT": 0.0, "PRIM_FUEL": "NUC", "SEC_FUEL": "NOT AVAILABLE", "COAL_USED": 0.0, "NGAS_USED": 0.0, "OIL_USED": 0.0, "NET_GEN": 14626967.0, "CAP_FACTOR": 0.89291181354235305, "SUB_1": "UNKNOWN112406", "SUB_2": "NOT AVAILABLE", "LINES": 1.0, "SOURCE_LAT": 33.9597, "SOURC_LONG": -78.0114 }, "geometry": { "type": "Point", "coordinates": [ -78.010145050999938, 33.958706414000062 ] } },
{ "type": "Feature", "properties": { "OBJECTID": 5607, "PLANT_CODE": "6015", "NAME": "HARRIS", "ADDRESS": "P. O. BOX 165", "CITY": "NEW HILL", "STATE": "NC", "ZIP": "27562", "TELEPHONE": "(919) 546-2830", "TYPE": "NUCLEAR", "STATUS": "OP", "COUNTY": "WAKE", "COUNTYFIPS": "37183", "COUNTRY": "USA", "LATITUDE": 35.63379408000003, "LONGITUDE": -78.956469907999974, "NAICS_CODE": "221113", "NAICS_DESC": "NUCLEAR ELECTRIC POWER GENERATION", "SOURCE": "EIA 860, EIA 923", "SOURCEDATE": "2019-09-03T00:00:00Z", "VAL_METHOD": "IMAGERY", "VAL_DATE": "2014-04-11T00:00:00Z", "WEBSITE": "http://www.duke-energy.com/power-plants/nuclear/harris.asp", "OPERATOR": "DUKE ENERGY PROGRESS - (NC)", "OPERAT_ID": "3046", "OPER_CAP": 950.9, "SUMMER_CAP": 964.0, "WINTER_CAP": 1009.0, "PLAN_CAP": 0.0, "RETIRE_CAP": 0.0, "GEN_UNITS": 1.0, "PLAN_UNIT": 0.0, "RETIR_UNIT": 0.0, "PRIM_FUEL": "NUC", "SEC_FUEL": "NOT AVAILABLE", "COAL_USED": 0.0, "NGAS_USED": 0.0, "OIL_USED": 0.0, "NET_GEN": 7587914.0, "CAP_FACTOR": 0.89854795467894399, "SUB_1": "UNKNOWN115178", "SUB_2": "NOT AVAILABLE", "LINES": 1.0, "SOURCE_LAT": 35.6334, "SOURC_LONG": -78.9556 }, "geometry": { "type": "Point", "coordinates": [ -78.956469907999974, 35.63379408000003 ] } },
{ "type": "Feature", "properties": { "OBJECTID": 5610, "PLANT_CODE": "6020", "NAME": "PERRY", "ADDRESS": "10 CENTER ROAD", "CITY": "PERRY", "STATE": "OH", "ZIP": "44081", "TELEPHONE": "NOT AVAILABLE", "TYPE": "NUCLEAR", "STATUS": "OP", "COUNTY": "LAKE", "COUNTYFIPS": "39085", "COUNTRY": "USA", "LATITUDE": 41.8006, "LONGITUDE": -81.1439, "NAICS_CODE": "221113", "NAICS_DESC": "NUCLEAR ELECTRIC POWER GENERATION", "SOURCE": "EIA 860, EIA 923", "SOURCEDATE": "2019-09-03T00:00:00Z", "VAL_METHOD": "IMAGERY/OTHER", "VAL_DATE": "2015-10-01T00:00:00Z", "WEBSITE": "https://www.firstenergycorp.com/content/fecorp/about/generation_system/FENOC/perry.html", "OPERATOR": "FIRSTENERGY NUCLEAR OPERATING COMPANY", "OPERAT_ID": "50161", "OPER_CAP": 1311.6, "SUMMER_CAP": 1240.0, "WINTER_CAP": 1268.0, "PLAN_CAP": 0.0, "RETIRE_CAP": 0.0, "GEN_UNITS": 1.0, "PLAN_UNIT": 0.0, "RETIR_UNIT": 0.0, "PRIM_FUEL": "NUC", "SEC_FUEL": "NOT AVAILABLE", "COAL_USED": 0.0, "NGAS_USED": 0.0, "OIL_USED": 0.0, "NET_GEN": 10934736.0, "CAP_FACTOR": 1.00665930181175, "SUB_1": "PERRY", "SUB_2": "NOT AVAILABLE", "LINES": 1.0, "SOURCE_LAT": 41.8006, "SOURC_LONG": -81.1439 }, "geometry": { "type": "Point", "coordinates": [ -81.1439, 41.8006 ] } },
{ "type": "Feature", "properties": { "OBJECTID": 5611, "PLANT_CODE": "6022", "NAME": "BRAIDWOOD GENERATION STATION", "ADDRESS": "RR #1 BOX 84", "CITY": "BRACEVILLE", "STATE": "IL", "ZIP": "60407", "TELEPHONE": "NOT AVAILABLE", "TYPE": "NUCLEAR", "STATUS": "OP", "COUNTY": "WILL", "COUNTYFIPS": "17197", "COUNTRY": "USA", "LATITUDE": 41.2435, "LONGITUDE": -88.2286, "NAICS_CODE": "221113", "NAICS_DESC": "NUCLEAR ELECTRIC POWER GENERATION", "SOURCE": "EIA 860, EIA 923", "SOURCEDATE": "2019-09-03T00:00:00Z", "VAL_METHOD": "IMAGERY", "VAL_DATE": "2015-03-27T00:00:00Z", "WEBSITE": "NOT AVAILABLE", "OPERATOR": "EXELON NUCLEAR", "OPERAT_ID": "55951", "OPER_CAP": 2449.8, "SUMMER_CAP": 2337.0, "WINTER_CAP": 2384.0, "PLAN_CAP": 0.0, "RETIRE_CAP": 0.0, "GEN_UNITS": 2.0, "PLAN_UNIT": 0.0, "RETIR_UNIT": 0.0, "PRIM_FUEL": "NUC", "SEC_FUEL": "NOT AVAILABLE", "COAL_USED": 0.0, "NGAS_USED": 0.0, "OIL_USED": 0.0, "NET_GEN": 19343459.0, "CAP_FACTOR": 0.94486838685978802, "SUB_1": "BRAIDWOOD", "SUB_2": "NOT AVAILABLE", "LINES": 1.0, "SOURCE_LAT": 41.2435, "SOURC_LONG": -88.2286 }, "geometry": { "type": "Point", "coordinates": [ -88.2286, 41.2435 ] } },
{ "type": "Feature", "properties": { "OBJECTID": 5612, "PLANT_CODE": "6023", "NAME": "BYRON GENERATING STATION", "ADDRESS": "4450 NORTH GERMAN CHURCH RD", "CITY": "BYRON", "STATE": "IL", "ZIP": "61010", "TELEPHONE": "NOT AVAILABLE", "TYPE": "NUCLEAR", "STATUS": "OP", "COUNTY": "OGLE", "COUNTYFIPS": "17141", "COUNTRY": "USA", "LATITUDE": 42.0742, "LONGITUDE": -89.2819, "NAICS_CODE": "221113", "NAICS_DESC": "NUCLEAR ELECTRIC POWER GENERATION", "SOURCE": "EIA 860, EIA 923", "SOURCEDATE": "2019-09-03T00:00:00Z", "VAL_METHOD": "IMAGERY", "VAL_DATE": "2015-03-27T00:00:00Z", "WEBSITE": "NOT AVAILABLE", "OPERATOR": "EXELON NUCLEAR", "OPERAT_ID": "55951", "OPER_CAP": 2449.8, "SUMMER_CAP": 2300.0, "WINTER_CAP": 2346.0, "PLAN_CAP": 0.0, "RETIRE_CAP": 0.0, "GEN_UNITS": 2.0, "PLAN_UNIT": 0.0, "RETIR_UNIT": 0.0, "PRIM_FUEL": "NUC", "SEC_FUEL": "NOT AVAILABLE", "COAL_USED": 0.0, "NGAS_USED": 0.0, "OIL_USED": 0.0, "NET_GEN": 20051023.0, "CAP_FACTOR": 0.99518676791741101, "SUB_1": "BYRON", "SUB_2": "NOT AVAILABLE", "LINES": 1.0, "SOURCE_LAT": 42.0742, "SOURC_LONG": -89.2819 }, "geometry": { "type": "Point", "coordinates": [ -89.2819, 42.0742 ] } },
{ "type": "Feature", "properties": { "OBJECTID": 5614, "PLANT_CODE": "6026", "NAME": "LASALLE GENERATING STATION", "ADDRESS": "2601 NORTH 21ST RD", "CITY": "MARSEILLES", "STATE": "IL", "ZIP": "61341", "TELEPHONE": "NOT AVAILABLE", "TYPE": "NUCLEAR", "STATUS": "OP", "COUNTY": "LASALLE", "COUNTYFIPS": "17099", "COUNTRY": "USA", "LATITUDE": 41.2455, "LONGITUDE": -88.66907, "NAICS_CODE": "221113", "NAICS_DESC": "NUCLEAR ELECTRIC POWER GENERATION", "SOURCE": "EIA 860, EIA 923", "SOURCEDATE": "2019-09-03T00:00:00Z", "VAL_METHOD": "IMAGERY", "VAL_DATE": "2015-03-27T00:00:00Z", "WEBSITE": "NOT AVAILABLE", "OPERATOR": "EXELON NUCLEAR", "OPERAT_ID": "55951", "OPER_CAP": 2340.0, "SUMMER_CAP": 2264.4, "WINTER_CAP": 2313.0, "PLAN_CAP": 0.0, "RETIRE_CAP": 0.0, "GEN_UNITS": 2.0, "PLAN_UNIT": 0.0, "RETIR_UNIT": 0.0, "PRIM_FUEL": "NUC", "SEC_FUEL": "NOT AVAILABLE", "COAL_USED": 0.0, "NGAS_USED": 0.0, "OIL_USED": 0.0, "NET_GEN": 19345766.0, "CAP_FACTOR": 0.97527856220442799, "SUB_1": "LA SALLE", "SUB_2": "NOT AVAILABLE", "LINES": 1.0, "SOURCE_LAT": 41.245498, "SOURC_LONG": -88.669066 }, "geometry": { "type": "Point", "coordinates": [ -88.66907, 41.2455 ] } },
{ "type": "Feature", "properties": { "OBJECTID": 5619, "PLANT_CODE": "6036", "NAME": "CATAWBA", "ADDRESS": "4800 CONCORD ROAD", "CITY": "YORK", "STATE": "SC", "ZIP": "29745", "TELEPHONE": "NOT AVAILABLE", "TYPE": "NUCLEAR", "STATUS": "OP", "COUNTY": "YORK", "COUNTYFIPS": "45091", "COUNTRY": "USA", "LATITUDE": 35.051600410000049, "LONGITUDE": -81.069255014999953, "NAICS_CODE": "221113", "NAICS_DESC": "NUCLEAR ELECTRIC POWER GENERATION", "SOURCE": "EIA 860, EIA 923", "SOURCEDATE": "2019-09-03T00:00:00Z", "VAL_METHOD": "IMAGERY/OTHER", "VAL_DATE": "2014-06-10T00:00:00Z", "WEBSITE": "http://www.duke-energy.com/power-plants/nuclear/catawba.asp", "OPERATOR": "DUKE ENERGY CAROLINAS, LLC", "OPERAT_ID": "5416", "OPER_CAP": 2410.2, "SUMMER_CAP": 2310.2, "WINTER_CAP": 2378.5, "PLAN_CAP": 0.0, "RETIRE_CAP": 0.0, "GEN_UNITS": 2.0, "PLAN_UNIT": 0.0, "RETIR_UNIT": 0.0, "PRIM_FUEL": "NUC", "SEC_FUEL": "NOT AVAILABLE", "COAL_USED": 0.0, "NGAS_USED": 0.0, "OIL_USED": 0.0, "NET_GEN": 18779715.0, "CAP_FACTOR": 0.92797293835675698, "SUB_1": "CATAWBA 230KV SWITCHING STATION", "SUB_2": "NOT AVAILABLE", "LINES": 1.0, "SOURCE_LAT": 35.0514, "SOURC_LONG": -81.0694 }, "geometry": { "type": "Point", "coordinates": [ -81.069255014999953, 35.051600410000049 ] } },
{ "type": "Feature", "properties": { "OBJECTID": 5620, "PLANT_CODE": "6038", "NAME": "MCGUIRE", "ADDRESS": "12700 HAGERS FERRY RD", "CITY": "HUNTERSVILLE", "STATE": "NC", "ZIP": "28078", "TELEPHONE": "(704) 382-4327", "TYPE": "NUCLEAR", "STATUS": "OP", "COUNTY": "MECKLENBURG", "COUNTYFIPS": "37119", "COUNTRY": "USA", "LATITUDE": 35.432449301000077, "LONGITUDE": -80.948557217999962, "NAICS_CODE": "221113", "NAICS_DESC": "NUCLEAR ELECTRIC POWER GENERATION", "SOURCE": "EIA 860, EIA 923", "SOURCEDATE": "2019-09-03T00:00:00Z", "VAL_METHOD": "IMAGERY", "VAL_DATE": "2014-04-11T00:00:00Z", "WEBSITE": "http://www.duke-energy.com/power-plants/nuclear/mcguire.asp", "OPERATOR": "DUKE ENERGY CAROLINAS, LLC", "OPERAT_ID": "5416", "OPER_CAP": 2440.6, "SUMMER_CAP": 2315.6, "WINTER_CAP": 2386.2, "PLAN_CAP": 0.0, "RETIRE_CAP": 0.0, "GEN_UNITS": 2.0, "PLAN_UNIT": 0.0, "RETIR_UNIT": 0.0, "PRIM_FUEL": "NUC", "SEC_FUEL": "NOT AVAILABLE", "COAL_USED": 0.0, "NGAS_USED": 0.0, "OIL_USED": 0.0, "NET_GEN": 19862068.0, "CAP_FACTOR": 0.97916711035178505, "SUB_1": "UNKNOWN110992", "SUB_2": "MCGUIRE", "LINES": 1.0, "SOURCE_LAT": 35.4331, "SOURC_LONG": -80.9486 }, "geometry": { "type": "Point", "coordinates": [ -80.948557217999962, 35.432449301000077 ] } },
{ "type": "Feature", "properties": { "OBJECTID": 5621, "PLANT_CODE": "6040", "NAME": "BEAVER VALLEY", "ADDRESS": "ROUTE 168", "CITY": "SHIPPINGPORT", "STATE": "PA", "ZIP": "15077", "TELEPHONE": "(724) 682-7888", "TYPE": "NUCLEAR", "STATUS": "OP", "COUNTY": "BEAVER", "COUNTYFIPS": "42007", "COUNTRY": "USA", "LATITUDE": 40.622761365000031, "LONGITUDE": -80.43251020699995, "NAICS_CODE": "221113", "NAICS_DESC": "NUCLEAR ELECTRIC POWER GENERATION", "SOURCE": "EIA 860, EIA 923", "SOURCEDATE": "2019-09-03T00:00:00Z", "VAL_METHOD": "IMAGERY/OTHER", "VAL_DATE": "2015-06-18T00:00:00Z", "WEBSITE": "https://www.firstenergycorp.com/content/fecorp/about/generation_system/FENOC/beaver_valley.html", "OPERATOR": "FIRSTENERGY NUCLEAR OPERATING COMPANY", "OPERAT_ID": "50161", "OPER_CAP": 1846.8, "SUMMER_CAP": 1808.0, "WINTER_CAP": 1872.0, "PLAN_CAP": 0.0, "RETIRE_CAP": 0.0, "GEN_UNITS": 2.0, "PLAN_UNIT": 0.0, "RETIR_UNIT": 0.0, "PRIM_FUEL": "NUC", "SEC_FUEL": "NOT AVAILABLE", "COAL_USED": 0.0, "NGAS_USED": 0.0, "OIL_USED": 0.0, "NET_GEN": 14653456.0, "CAP_FACTOR": 0.92520406513920905, "SUB_1": "UNKNOWN123680", "SUB_2": "NOT AVAILABLE", "LINES": 1.0, "SOURCE_LAT": 40.6219, "SOURC_LONG": -80.4336 }, "geometry": { "type": "Point", "coordinates": [ -80.43251020699995, 40.622761365000031 ] } },
{ "type": "Feature", "properties": { "OBJECTID": 5625, "PLANT_CODE": "6045", "NAME": "ST LUCIE", "ADDRESS": "6501 S. OCEAN DR.", "CITY": "JENSEN BEACH", "STATE": "FL", "ZIP": "33497", "TELEPHONE": "(772) 467-1766", "TYPE": "NUCLEAR", "STATUS": "OP", "COUNTY": "ST. LUCIE", "COUNTYFIPS": "12111", "COUNTRY": "USA", "LATITUDE": 27.34861, "LONGITUDE": -80.24639, "NAICS_CODE": "221113", "NAICS_DESC": "NUCLEAR ELECTRIC POWER GENERATION", "SOURCE": "EIA 860, EIA 923", "SOURCEDATE": "2019-09-03T00:00:00Z", "VAL_METHOD": "IMAGERY", "VAL_DATE": "2015-04-07T00:00:00Z", "WEBSITE": "http://www.fpl.com/environment/nuclear/about_st_lucie.shtml", "OPERATOR": "FLORIDA POWER & LIGHT CO", "OPERAT_ID": "6452", "OPER_CAP": 2160.0, "SUMMER_CAP": 1968.0, "WINTER_CAP": 1990.0, "PLAN_CAP": 0.0, "RETIRE_CAP": 0.0, "GEN_UNITS": 2.0, "PLAN_UNIT": 0.0, "RETIR_UNIT": 0.0, "PRIM_FUEL": "NUC", "SEC_FUEL": "NOT AVAILABLE", "COAL_USED": 0.0, "NGAS_USED": 0.0, "OIL_USED": 0.0, "NET_GEN": 15562581.0, "CAP_FACTOR": 0.90271866995211003, "SUB_1": "UNKNOWN120611", "SUB_2": "NOT AVAILABLE", "LINES": 1.0, "SOURCE_LAT": 27.348611, "SOURC_LONG": -80.246389 }, "geometry": { "type": "Point", "coordinates": [ -80.24639, 27.34861 ] } },
{ "type": "Feature", "properties": { "OBJECTID": 5629, "PLANT_CODE": "6051", "NAME": "EDWIN I HATCH", "ADDRESS": "US HIGHWAY 1 NORTH", "CITY": "BAXLEY", "STATE": "GA", "ZIP": "31513", "TELEPHONE": "(912) 367-3668", "TYPE": "NUCLEAR", "STATUS": "OP", "COUNTY": "APPLING", "COUNTYFIPS": "13001", "COUNTRY": "USA", "LATITUDE": 31.9342, "LONGITUDE": -82.3447, "NAICS_CODE": "221113", "NAICS_DESC": "NUCLEAR ELECTRIC POWER GENERATION", "SOURCE": "EIA 860, EIA 923", "SOURCEDATE": "2019-09-03T00:00:00Z", "VAL_METHOD": "IMAGERY/OTHER", "VAL_DATE": "2014-10-29T00:00:00Z", "WEBSITE": "http://www.georgiapower.com/", "OPERATOR": "GEORGIA POWER CO", "OPERAT_ID": "7140", "OPER_CAP": 1721.8, "SUMMER_CAP": 1759.0, "WINTER_CAP": 1759.0, "PLAN_CAP": 0.0, "RETIRE_CAP": 0.0, "GEN_UNITS": 2.0, "PLAN_UNIT": 0.0, "RETIR_UNIT": 0.0, "PRIM_FUEL": "NUC", "SEC_FUEL": "NOT AVAILABLE", "COAL_USED": 0.0, "NGAS_USED": 0.0, "OIL_USED": 0.0, "NET_GEN": 14403550.0, "CAP_FACTOR": 0.93475887866964702, "SUB_1": "UNKNOWN116864", "SUB_2": "NOT AVAILABLE", "LINES": 1.0, "SOURCE_LAT": 31.9342, "SOURC_LONG": -82.3447 }, "geometry": { "type": "Point", "coordinates": [ -82.3447, 31.9342 ] } },
{ "type": "Feature", "properties": { "OBJECTID": 5640, "PLANT_CODE": "6072", "NAME": "GRAND GULF", "ADDRESS": "7003 BALD HILL RD", "CITY": "PORT GIBSON", "STATE": "MS", "ZIP": "39150", "TELEPHONE": "NOT AVAILABLE", "TYPE": "NUCLEAR", "STATUS": "OP", "COUNTY": "CLAIBORNE", "COUNTYFIPS": "28021", "COUNTRY": "USA", "LATITUDE": 32.007594572000073, "LONGITUDE": -91.047905270999991, "NAICS_CODE": "221113", "NAICS_DESC": "NUCLEAR ELECTRIC POWER GENERATION", "SOURCE": "EIA 860, EIA 923", "SOURCEDATE": "2019-09-03T00:00:00Z", "VAL_METHOD": "IMAGERY", "VAL_DATE": "2017-03-24T00:00:00Z", "WEBSITE": "http://www.entergy-nuclear.com/plant_information/grand_gulf.aspx", "OPERATOR": "SYSTEM ENERGY RESOURCES, INC", "OPERAT_ID": "12465", "OPER_CAP": 1440.0, "SUMMER_CAP": 1401.0, "WINTER_CAP": 1428.0, "PLAN_CAP": 0.0, "RETIRE_CAP": 0.0, "GEN_UNITS": 1.0, "PLAN_UNIT": 0.0, "RETIR_UNIT": 0.0, "PRIM_FUEL": "NUC", "SEC_FUEL": "NOT AVAILABLE", "COAL_USED": 0.0, "NGAS_USED": 0.0, "OIL_USED": 0.0, "NET_GEN": 6919470.0, "CAP_FACTOR": 0.56380716318089796, "SUB_1": "GRAND GULF", "SUB_2": "NOT AVAILABLE", "LINES": 1.0, "SOURCE_LAT": 32.0081, "SOURC_LONG": -91.0478 }, "geometry": { "type": "Point", "coordinates": [ -91.047905271, 32.007594572000073 ] } },
{ "type": "Feature", "properties": { "OBJECTID": 5657, "PLANT_CODE": "6103", "NAME": "TALENENERGY SUSQUEHANNA", "ADDRESS": "769 SALEM BLVD", "CITY": "BERWICK", "STATE": "PA", "ZIP": "18603", "TELEPHONE": "(570) 542-2881", "TYPE": "NUCLEAR", "STATUS": "OP", "COUNTY": "LUZERNE", "COUNTYFIPS": "42079", "COUNTRY": "USA", "LATITUDE": 41.091904759000045, "LONGITUDE": -76.146271383999988, "NAICS_CODE": "221113", "NAICS_DESC": "NUCLEAR ELECTRIC POWER GENERATION", "SOURCE": "EIA 860, EIA 923", "SOURCEDATE": "2019-09-03T00:00:00Z", "VAL_METHOD": "IMAGERY", "VAL_DATE": "2015-06-18T00:00:00Z", "WEBSITE": "http://susquehannanuclear.com/", "OPERATOR": "TALENENERGY SUSQUEHANNA LLC", "OPERAT_ID": "14266", "OPER_CAP": 2532.0, "SUMMER_CAP": 2494.0, "WINTER_CAP": 2620.0, "PLAN_CAP": 0.0, "RETIRE_CAP": 0.0, "GEN_UNITS": 2.0, "PLAN_UNIT": 0.0, "RETIR_UNIT": 0.0, "PRIM_FUEL": "NUC", "SEC_FUEL": "NOT AVAILABLE", "COAL_USED": 0.0, "NGAS_USED": 0.0, "OIL_USED": 0.0, "NET_GEN": 20468722.0, "CAP_FACTOR": 0.93689338430498004, "SUB_1": "SUSQUEHANNA", "SUB_2": "NOT AVAILABLE", "LINES": 1.0, "SOURCE_LAT": 41.0919, "SOURC_LONG": -76.1462 }, "geometry": { "type": "Point", "coordinates": [ -76.146271383999988, 41.091904759000045 ] } },
{ "type": "Feature", "properties": { "OBJECTID": 5658, "PLANT_CODE": "6105", "NAME": "LIMERICK", "ADDRESS": "OFF ROUTE 422; P O BOX 2300", "CITY": "SANATOGA", "STATE": "PA", "ZIP": "19464", "TELEPHONE": "(800) 483-3220", "TYPE": "NUCLEAR", "STATUS": "OP", "COUNTY": "MONTGOMERY", "COUNTYFIPS": "42091", "COUNTRY": "USA", "LATITUDE": 40.224276670000052, "LONGITUDE": -75.58741165899994, "NAICS_CODE": "221113", "NAICS_DESC": "NUCLEAR ELECTRIC POWER GENERATION", "SOURCE": "EIA 860, EIA 923", "SOURCEDATE": "2019-09-03T00:00:00Z", "VAL_METHOD": "IMAGERY/OTHER", "VAL_DATE": "2015-06-24T00:00:00Z", "WEBSITE": "http://www.exeloncorp.com/PowerPlants/limerick/Pages/profile.aspx", "OPERATOR": "EXELON NUCLEAR", "OPERAT_ID": "55951", "OPER_CAP": 2277.0, "SUMMER_CAP": 2241.8, "WINTER_CAP": 2386.0, "PLAN_CAP": 0.0, "RETIRE_CAP": 0.0, "GEN_UNITS": 2.0, "PLAN_UNIT": 0.0, "RETIR_UNIT": 0.0, "PRIM_FUEL": "NUC", "SEC_FUEL": "NOT AVAILABLE", "COAL_USED": 0.0, "NGAS_USED": 0.0, "OIL_USED": 0.0, "NET_GEN": 19338626.0, "CAP_FACTOR": 0.98474694788230799, "SUB_1": "LIMERICK (230KV SUB)", "SUB_2": "LIMERICK (500KV SUB)", "LINES": 1.0, "SOURCE_LAT": 40.224303, "SOURC_LONG": -75.58744 }, "geometry": { "type": "Point", "coordinates": [ -75.58741165899994, 40.224276670000052 ] } },
{ "type": "Feature", "properties": { "OBJECTID": 5659, "PLANT_CODE": "6110", "NAME": "JAMES A FITZPATRICK", "ADDRESS": "LAKE ROAD", "CITY": "LYCOMING", "STATE": "NY", "ZIP": "13093", "TELEPHONE": "NOT AVAILABLE", "TYPE": "NUCLEAR", "STATUS": "OP", "COUNTY": "OSWEGO", "COUNTYFIPS": "36075", "COUNTRY": "USA", "LATITUDE": 43.523139283000035, "LONGITUDE": -76.398205423999968, "NAICS_CODE": "221113", "NAICS_DESC": "NUCLEAR ELECTRIC POWER GENERATION", "SOURCE": "EIA 860, EIA 923", "SOURCEDATE": "2019-09-03T00:00:00Z", "VAL_METHOD": "IMAGERY", "VAL_DATE": "2015-05-14T00:00:00Z", "WEBSITE": "http://www.entergy-nuclear.com/plant_information/fitzPatrick.aspx", "OPERATOR": "EXELON NUCLEAR", "OPERAT_ID": "55951", "OPER_CAP": 883.3, "SUMMER_CAP": 848.1, "WINTER_CAP": 854.5, "PLAN_CAP": 0.0, "RETIRE_CAP": 0.0, "GEN_UNITS": 1.0, "PLAN_UNIT": 0.0, "RETIR_UNIT": 0.0, "PRIM_FUEL": "NUC", "SEC_FUEL": "NOT AVAILABLE", "COAL_USED": 0.0, "NGAS_USED": 0.0, "OIL_USED": 0.0, "NET_GEN": 6527781.0, "CAP_FACTOR": 0.87864695136429105, "SUB_1": "FITZPATRICK", "SUB_2": "NOT AVAILABLE", "LINES": 1.0, "SOURCE_LAT": 43.52139, "SOURC_LONG": -76.408394 }, "geometry": { "type": "Point", "coordinates": [ -76.398205423999968, 43.523139283000035 ] } },
{ "type": "Feature", "properties": { "OBJECTID": 5661, "PLANT_CODE": "6115", "NAME": "SEABROOK", "ADDRESS": "626 LAFAYETTE ROAD", "CITY": "SEABROOK", "STATE": "NH", "ZIP": "03874", "TELEPHONE": "NOT AVAILABLE", "TYPE": "NUCLEAR", "STATUS": "OP", "COUNTY": "ROCKINGHAM", "COUNTYFIPS": "33015", "COUNTRY": "USA", "LATITUDE": 42.899519966000071, "LONGITUDE": -70.849681472999976, "NAICS_CODE": "221113", "NAICS_DESC": "NUCLEAR ELECTRIC POWER GENERATION", "SOURCE": "EIA 860, EIA 923", "SOURCEDATE": "2019-09-03T00:00:00Z", "VAL_METHOD": "IMAGERY", "VAL_DATE": "2017-03-29T00:00:00Z", "WEBSITE": "http://www.nexteraenergyresources.com/what/nuclear_seabrook.shtml", "OPERATOR": "NEXTERA ENERGY SEABROOK LLC", "OPERAT_ID": "6854", "OPER_CAP": 1242.0, "SUMMER_CAP": 1251.4, "WINTER_CAP": 1250.2, "PLAN_CAP": 0.0, "RETIRE_CAP": 0.0, "GEN_UNITS": 1.0, "PLAN_UNIT": 0.0, "RETIR_UNIT": 0.0, "PRIM_FUEL": "NUC", "SEC_FUEL": "NOT AVAILABLE", "COAL_USED": 0.0, "NGAS_USED": 0.0, "OIL_USED": 0.0, "NET_GEN": 10061696.0, "CAP_FACTOR": 0.91784835687226696, "SUB_1": "UNKNOWN132750", "SUB_2": "NOT AVAILABLE", "LINES": 1.0, "SOURCE_LAT": 42.899167, "SOURC_LONG": -70.848889 }, "geometry": { "type": "Point", "coordinates": [ -70.849681472999976, 42.899519966000071 ] } },
{ "type": "Feature", "properties": { "OBJECTID": 5662, "PLANT_CODE": "6118", "NAME": "PSEG HOPE CREEK GENERATING STATION", "ADDRESS": "P O BOX 236 END OF BUTTONWOOD", "CITY": "HANCOCKS BRIDGE", "STATE": "NJ", "ZIP": "08038", "TELEPHONE": "(800) 436-7734", "TYPE": "NUCLEAR", "STATUS": "OP", "COUNTY": "SALEM", "COUNTYFIPS": "34033", "COUNTRY": "USA", "LATITUDE": 39.466609518000041, "LONGITUDE": -75.537366874999975, "NAICS_CODE": "221113", "NAICS_DESC": "NUCLEAR ELECTRIC POWER GENERATION", "SOURCE": "EIA 860, EIA 923", "SOURCEDATE": "2019-09-03T00:00:00Z", "VAL_METHOD": "IMAGERY", "VAL_DATE": "2015-09-16T00:00:00Z", "WEBSITE": "https://www.pseg.com/family/power/nuclear/", "OPERATOR": "PSEG NUCLEAR LLC", "OPERAT_ID": "15478", "OPER_CAP": 1290.7, "SUMMER_CAP": 1172.0, "WINTER_CAP": 1172.0, "PLAN_CAP": 0.0, "RETIRE_CAP": 0.0, "GEN_UNITS": 1.0, "PLAN_UNIT": 0.0, "RETIR_UNIT": 0.0, "PRIM_FUEL": "NUC", "SEC_FUEL": "NOT AVAILABLE", "COAL_USED": 0.0, "NGAS_USED": 0.0, "OIL_USED": 0.0, "NET_GEN": 9546684.0, "CAP_FACTOR": 0.92986698770396004, "SUB_1": "HOPE CREEK", "SUB_2": "NOT AVAILABLE", "LINES": 1.0, "SOURCE_LAT": 39.4666, "SOURC_LONG": -75.5377 }, "geometry": { "type": "Point", "coordinates": [ -75.537366874999975, 39.466609518000041 ] } },
{ "type": "Feature", "properties": { "OBJECTID": 5664, "PLANT_CODE": "6122", "NAME": "R E GINNA NUCLEAR POWER PLANT", "ADDRESS": "LAKE RD.", "CITY": "ONTARIO", "STATE": "NY", "ZIP": "14519", "TELEPHONE": "(585) 771-5402", "TYPE": "NUCLEAR", "STATUS": "OP", "COUNTY": "WAYNE", "COUNTYFIPS": "36117", "COUNTRY": "USA", "LATITUDE": 43.278046080000081, "LONGITUDE": -77.308723484999973, "NAICS_CODE": "221113", "NAICS_DESC": "NUCLEAR ELECTRIC POWER GENERATION", "SOURCE": "EIA 860, EIA 923", "SOURCEDATE": "2019-09-03T00:00:00Z", "VAL_METHOD": "IMAGERY", "VAL_DATE": "2015-05-19T00:00:00Z", "WEBSITE": "http://www.exeloncorp.com/PowerPlants/re_ginna/Pages/profile.aspx", "OPERATOR": "EXELON NUCLEAR", "OPERAT_ID": "55951", "OPER_CAP": 614.0, "SUMMER_CAP": 582.0, "WINTER_CAP": 583.0, "PLAN_CAP": 0.0, "RETIRE_CAP": 0.0, "GEN_UNITS": 1.0, "PLAN_UNIT": 0.0, "RETIR_UNIT": 0.0, "PRIM_FUEL": "NUC", "SEC_FUEL": "NOT AVAILABLE", "COAL_USED": 0.0, "NGAS_USED": 0.0, "OIL_USED": 0.0, "NET_GEN": 4689440.0, "CAP_FACTOR": 0.91980103249697898, "SUB_1": "UNKNOWN124705", "SUB_2": "NOT AVAILABLE", "LINES": 1.0, "SOURCE_LAT": 43.2777, "SOURC_LONG": -77.3099 }, "geometry": { "type": "Point", "coordinates": [ -77.308723484999973, 43.278046080000081 ] } },
{ "type": "Feature", "properties": { "OBJECTID": 5668, "PLANT_CODE": "6127", "NAME": "V C SUMMER", "ADDRESS": "BRADHAM BOULEVARD OFF HWY 215", "CITY": "JENKINSVILLE", "STATE": "SC", "ZIP": "29065", "TELEPHONE": "NOT AVAILABLE", "TYPE": "NUCLEAR", "STATUS": "OP", "COUNTY": "FAIRFIELD", "COUNTYFIPS": "45039", "COUNTRY": "USA", "LATITUDE": 34.297930860000065, "LONGITUDE": -81.315140754999959, "NAICS_CODE": "221113", "NAICS_DESC": "NUCLEAR ELECTRIC POWER GENERATION", "SOURCE": "EIA 860, EIA 923", "SOURCEDATE": "2019-09-03T00:00:00Z", "VAL_METHOD": "IMAGERY/OTHER", "VAL_DATE": "2014-06-10T00:00:00Z", "WEBSITE": "http://www.sceg.com/en/about-sceg/power-plants/nuclear/default.htm", "OPERATOR": "SOUTH CAROLINA ELECTRIC&GAS COMPANY", "OPERAT_ID": "17539", "OPER_CAP": 1029.6, "SUMMER_CAP": 971.0, "WINTER_CAP": 992.0, "PLAN_CAP": 0.0, "RETIRE_CAP": 2200.0, "GEN_UNITS": 1.0, "PLAN_UNIT": 0.0, "RETIR_UNIT": 2.0, "PRIM_FUEL": "NUC", "SEC_FUEL": "NOT AVAILABLE", "COAL_USED": 0.0, "NGAS_USED": 0.0, "OIL_USED": 0.0, "NET_GEN": 7366391.0, "CAP_FACTOR": 0.86602699754054802, "SUB_1": "UNKNOWN117127", "SUB_2": "NOT AVAILABLE", "LINES": 1.0, "SOURCE_LAT": 34.2983, "SOURC_LONG": -81.3153 }, "geometry": { "type": "Point", "coordinates": [ -81.315140754999959, 34.297930860000065 ] } },
{ "type": "Feature", "properties": { "OBJECTID": 5679, "PLANT_CODE": "6149", "NAME": "DAVIS BESSE", "ADDRESS": "5501 N STATE ROUTE 2", "CITY": "OAK HARBOR", "STATE": "OH", "ZIP": "43449", "TELEPHONE": "NOT AVAILABLE", "TYPE": "NUCLEAR", "STATUS": "OP", "COUNTY": "OTTAWA", "COUNTYFIPS": "39123", "COUNTRY": "USA", "LATITUDE": 41.5967, "LONGITUDE": -83.0861, "NAICS_CODE": "221113", "NAICS_DESC": "NUCLEAR ELECTRIC POWER GENERATION", "SOURCE": "EIA 860, EIA 923", "SOURCEDATE": "2019-09-03T00:00:00Z", "VAL_METHOD": "IMAGERY/OTHER", "VAL_DATE": "2015-10-02T00:00:00Z", "WEBSITE": "https://www.firstenergycorp.com/content/fecorp/about/generation_system/FENOC/davis-besse.html", "OPERATOR": "FIRSTENERGY NUCLEAR OPERATING COMPANY", "OPERAT_ID": "50161", "OPER_CAP": 925.2, "SUMMER_CAP": 894.0, "WINTER_CAP": 908.0, "PLAN_CAP": 0.0, "RETIRE_CAP": 0.0, "GEN_UNITS": 1.0, "PLAN_UNIT": 0.0, "RETIR_UNIT": 0.0, "PRIM_FUEL": "NUC", "SEC_FUEL": "NOT AVAILABLE", "COAL_USED": 0.0, "NGAS_USED": 0.0, "OIL_USED": 0.0, "NET_GEN": 7380271.0, "CAP_FACTOR": 0.94239003299520896, "SUB_1": "DAVIS-BESSE", "SUB_2": "NOT AVAILABLE", "LINES": 1.0, "SOURCE_LAT": 41.5967, "SOURC_LONG": -83.0861 }, "geometry": { "type": "Point", "coordinates": [ -83.0861, 41.5967 ] } },
{ "type": "Feature", "properties": { "OBJECTID": 5682, "PLANT_CODE": "6152", "NAME": "SEQUOYAH", "ADDRESS": "SEQUOYAH RD. PO BOX 2000", "CITY": "SODDY DAISY", "STATE": "TN", "ZIP": "37379", "TELEPHONE": "(865) 632-2101", "TYPE": "NUCLEAR", "STATUS": "OP", "COUNTY": "HAMILTON", "COUNTYFIPS": "47065", "COUNTRY": "USA", "LATITUDE": 35.226688351000064, "LONGITUDE": -85.09209217099999, "NAICS_CODE": "221113", "NAICS_DESC": "NUCLEAR ELECTRIC POWER GENERATION", "SOURCE": "EIA 860, EIA 923", "SOURCEDATE": "2019-09-03T00:00:00Z", "VAL_METHOD": "IMAGERY/OTHER", "VAL_DATE": "2014-07-22T00:00:00Z", "WEBSITE": "http://www.tva.gov/sites/sequoyah.htm", "OPERATOR": "TENNESSEE VALLEY AUTHORITY", "OPERAT_ID": "18642", "OPER_CAP": 2441.0, "SUMMER_CAP": 2277.7, "WINTER_CAP": 2332.5, "PLAN_CAP": 0.0, "RETIRE_CAP": 0.0, "GEN_UNITS": 2.0, "PLAN_UNIT": 0.0, "RETIR_UNIT": 0.0, "PRIM_FUEL": "NUC", "SEC_FUEL": "NOT AVAILABLE", "COAL_USED": 0.0, "NGAS_USED": 0.0, "OIL_USED": 0.0, "NET_GEN": 17703749.0, "CAP_FACTOR": 0.887288015648246, "SUB_1": "UNKNOWN115419", "SUB_2": "UNKNOWN115420", "LINES": 1.0, "SOURCE_LAT": 35.2267, "SOURC_LONG": -85.0917 }, "geometry": { "type": "Point", "coordinates": [ -85.092092171, 35.226688351000064 ] } },
{ "type": "Feature", "properties": { "OBJECTID": 5683, "PLANT_CODE": "6153", "NAME": "CALLAWAY", "ADDRESS": "ROUTE CC", "CITY": "FULTON", "STATE": "MO", "ZIP": "65251", "TELEPHONE": "(844) 299-8129", "TYPE": "NUCLEAR", "STATUS": "OP", "COUNTY": "CALLAWAY", "COUNTYFIPS": "29027", "COUNTRY": "USA", "LATITUDE": 38.760815999000044, "LONGITUDE": -91.781670765999991, "NAICS_CODE": "221113", "NAICS_DESC": "NUCLEAR ELECTRIC POWER GENERATION", "SOURCE": "EIA 860, EIA 923", "SOURCEDATE": "2019-09-03T00:00:00Z", "VAL_METHOD": "IMAGERY", "VAL_DATE": "2014-09-11T00:00:00Z", "WEBSITE": "http://ameren.com/Pages/Home.aspx", "OPERATOR": "UNION ELECTRIC CO - (MO)", "OPERAT_ID": "19436", "OPER_CAP": 1235.8, "SUMMER_CAP": 1190.0, "WINTER_CAP": 1236.0, "PLAN_CAP": 0.0, "RETIRE_CAP": 0.0, "GEN_UNITS": 1.0, "PLAN_UNIT": 0.0, "RETIR_UNIT": 0.0, "PRIM_FUEL": "NUC", "SEC_FUEL": "NOT AVAILABLE", "COAL_USED": 0.0, "NGAS_USED": 0.0, "OIL_USED": 0.0, "NET_GEN": 10655279.0, "CAP_FACTOR": 1.0221479413683301, "SUB_1": "CALLAWAY", "SUB_2": "NOT AVAILABLE", "LINES": 1.0, "SOURCE_LAT": 38.758919, "SOURC_LONG": -91.778841 }, "geometry": { "type": "Point", "coordinates": [ -91.781670766, 38.760815999000044 ] } },
{ "type": "Feature", "properties": { "OBJECTID": 5688, "PLANT_CODE": "6168", "NAME": "NORTH ANNA", "ADDRESS": "P.O. BOX 402, END OF RT. 700", "CITY": "MINERAL", "STATE": "VA", "ZIP": "23117", "TELEPHONE": "(540) 894-2029", "TYPE": "CONVENTIONAL HYDROELECTRIC; NUCLEAR", "STATUS": "OP", "COUNTY": "LOUISA", "COUNTYFIPS": "51109", "COUNTRY": "USA", "LATITUDE": 38.06112429500007, "LONGITUDE": -77.790181840999935, "NAICS_CODE": "221113", "NAICS_DESC": "NUCLEAR ELECTRIC POWER GENERATION", "SOURCE": "EIA 860, EIA 923", "SOURCEDATE": "2019-09-03T00:00:00Z", "VAL_METHOD": "IMAGERY/OTHER", "VAL_DATE": "2017-04-27T00:00:00Z", "WEBSITE": "https://www.dom.com/about/stations/nuclear/north-anna/north-anna-nuclear-information-center.jsp", "OPERATOR": "VIRGINIA ELECTRIC & POWER CO", "OPERAT_ID": "19876", "OPER_CAP": 1960.4, "SUMMER_CAP": 1893.0, "WINTER_CAP": 1959.0, "PLAN_CAP": 0.0, "RETIRE_CAP": 0.0, "GEN_UNITS": 3.0, "PLAN_UNIT": 0.0, "RETIR_UNIT": 0.0, "PRIM_FUEL": "NUC", "SEC_FUEL": "WAT", "COAL_USED": 0.0, "NGAS_USED": 0.0, "OIL_USED": 0.0, "NET_GEN": 16034822.0, "CAP_FACTOR": 0.96696203508721101, "SUB_1": "NORTH ANNA", "SUB_2": "NOT AVAILABLE", "LINES": 1.0, "SOURCE_LAT": 38.06, "SOURC_LONG": -77.7897 }, "geometry": { "type": "Point", "coordinates": [ -77.790181840999935, 38.06112429500007 ] } },
{ "type": "Feature", "properties": { "OBJECTID": 5755, "PLANT_CODE": "6462", "NAME": "RIVER BEND", "ADDRESS": "5485 U.S. HIGHWAY 61", "CITY": "ST. FRANCISVILLE", "STATE": "LA", "ZIP": "70775", "TELEPHONE": "NOT AVAILABLE", "TYPE": "NUCLEAR", "STATUS": "OP", "COUNTY": "WEST FELICIANA", "COUNTYFIPS": "22125", "COUNTRY": "USA", "LATITUDE": 30.756590987000038, "LONGITUDE": -91.331439308999961, "NAICS_CODE": "221113", "NAICS_DESC": "NUCLEAR ELECTRIC POWER GENERATION", "SOURCE": "EIA 860, EIA 923", "SOURCEDATE": "2019-09-03T00:00:00Z", "VAL_METHOD": "IMAGERY/OTHER", "VAL_DATE": "2014-06-20T00:00:00Z", "WEBSITE": "http://www.entergy.com/", "OPERATOR": "ENTERGY LOUISIANA LLC", "OPERAT_ID": "11241", "OPER_CAP": 1035.9, "SUMMER_CAP": 967.5, "WINTER_CAP": 967.0, "PLAN_CAP": 0.0, "RETIRE_CAP": 0.0, "GEN_UNITS": 1.0, "PLAN_UNIT": 0.0, "RETIR_UNIT": 0.0, "PRIM_FUEL": "NUC", "SEC_FUEL": "NOT AVAILABLE", "COAL_USED": 0.0, "NGAS_USED": 0.0, "OIL_USED": 0.0, "NET_GEN": 6999996.0, "CAP_FACTOR": 0.82592899366394101, "SUB_1": "FANCY POINT", "SUB_2": "UNKNOWN157939", "LINES": 1.0, "SOURCE_LAT": 30.757, "SOURC_LONG": -91.3327 }, "geometry": { "type": "Point", "coordinates": [ -91.331439308999961, 30.756590987000038 ] } },
{ "type": "Feature", "properties": { "OBJECTID": 5975, "PLANT_CODE": "7722", "NAME": "WATTS BAR NUCLEAR PLANT", "ADDRESS": "HWY 68 PO BOX 2000", "CITY": "SPRING CITY", "STATE": "TN", "ZIP": "37381", "TELEPHONE": "NOT AVAILABLE", "TYPE": "NUCLEAR", "STATUS": "OP", "COUNTY": "RHEA", "COUNTYFIPS": "47143", "COUNTRY": "USA", "LATITUDE": 35.6021, "LONGITUDE": -84.7895, "NAICS_CODE": "221113", "NAICS_DESC": "NUCLEAR ELECTRIC POWER GENERATION", "SOURCE": "EIA 860, EIA 923", "SOURCEDATE": "2019-09-03T00:00:00Z", "VAL_METHOD": "IMAGERY/OTHER", "VAL_DATE": "2014-07-22T00:00:00Z", "WEBSITE": "http://www.tva.gov/power/nuclear/wattsbar.htm", "OPERATOR": "TENNESSEE VALLEY AUTHORITY", "OPERAT_ID": "18642", "OPER_CAP": 2539.8, "SUMMER_CAP": 2245.0, "WINTER_CAP": 2343.0, "PLAN_CAP": 0.0, "RETIRE_CAP": 0.0, "GEN_UNITS": 2.0, "PLAN_UNIT": 0.0, "RETIR_UNIT": 0.0, "PRIM_FUEL": "NUC", "SEC_FUEL": "NOT AVAILABLE", "COAL_USED": 0.0, "NGAS_USED": 0.0, "OIL_USED": 0.0, "NET_GEN": 18472633.0, "CAP_FACTOR": 0.93930871241012504, "SUB_1": "WATTS BAR POWER STATION", "SUB_2": "NOT AVAILABLE", "LINES": 1.0, "SOURCE_LAT": 35.6021, "SOURC_LONG": -84.7895 }, "geometry": { "type": "Point", "coordinates": [ -84.7895, 35.6021 ] } },
{ "type": "Feature", "properties": { "OBJECTID": 6144, "PLANT_CODE": "8011", "NAME": "THREE MILE ISLAND", "ADDRESS": "PO BOX 480", "CITY": "MIDDLETOWN", "STATE": "PA", "ZIP": "17057", "TELEPHONE": "NOT AVAILABLE", "TYPE": "NUCLEAR", "STATUS": "OP", "COUNTY": "DAUPHIN", "COUNTYFIPS": "42043", "COUNTRY": "USA", "LATITUDE": 40.154454696000073, "LONGITUDE": -76.724893580999947, "NAICS_CODE": "221113", "NAICS_DESC": "NUCLEAR ELECTRIC POWER GENERATION", "SOURCE": "EIA 860, EIA 923", "SOURCEDATE": "2019-09-03T00:00:00Z", "VAL_METHOD": "IMAGERY/OTHER", "VAL_DATE": "2015-06-18T00:00:00Z", "WEBSITE": "http://www.exeloncorp.com/PowerPlants/threemileisland/Pages/profile.aspx", "OPERATOR": "EXELON NUCLEAR", "OPERAT_ID": "55951", "OPER_CAP": 980.8, "SUMMER_CAP": 802.8, "WINTER_CAP": 829.0, "PLAN_CAP": 0.0, "RETIRE_CAP": 0.0, "GEN_UNITS": 1.0, "PLAN_UNIT": 0.0, "RETIR_UNIT": 0.0, "PRIM_FUEL": "NUC", "SEC_FUEL": "NOT AVAILABLE", "COAL_USED": 0.0, "NGAS_USED": 0.0, "OIL_USED": 0.0, "NET_GEN": 7335824.0, "CAP_FACTOR": 1.0431275922399501, "SUB_1": "UNKNOWN123407", "SUB_2": "NOT AVAILABLE", "LINES": 1.0, "SOURCE_LAT": 40.1515, "SOURC_LONG": -76.7232 }, "geometry": { "type": "Point", "coordinates": [ -76.724893580999947, 40.154454696000073 ] } },
{ "type": "Feature", "properties": { "OBJECTID": 6160, "PLANT_CODE": "8036", "NAME": "COOPER NUCLEAR STATION", "ADDRESS": "P.O. BOX 98", "CITY": "BROWNVILLE", "STATE": "NE", "ZIP": "68321", "TELEPHONE": "NOT AVAILABLE", "TYPE": "NUCLEAR", "STATUS": "OP", "COUNTY": "NEMAHA", "COUNTYFIPS": "31127", "COUNTRY": "USA", "LATITUDE": 40.362099809000028, "LONGITUDE": -95.641310307999959, "NAICS_CODE": "221113", "NAICS_DESC": "NUCLEAR ELECTRIC POWER GENERATION", "SOURCE": "EIA 860, EIA 923", "SOURCEDATE": "2019-09-03T00:00:00Z", "VAL_METHOD": "IMAGERY", "VAL_DATE": "2015-08-27T00:00:00Z", "WEBSITE": "NOT AVAILABLE", "OPERATOR": "NEBRASKA PUBLIC POWER DISTRICT", "OPERAT_ID": "13337", "OPER_CAP": 801.0, "SUMMER_CAP": 770.0, "WINTER_CAP": 770.0, "PLAN_CAP": 0.0, "RETIRE_CAP": 0.0, "GEN_UNITS": 1.0, "PLAN_UNIT": 0.0, "RETIR_UNIT": 0.0, "PRIM_FUEL": "NUC", "SEC_FUEL": "NOT AVAILABLE", "COAL_USED": 0.0, "NGAS_USED": 0.0, "OIL_USED": 0.0, "NET_GEN": 5632140.0, "CAP_FACTOR": 0.83498487813556299, "SUB_1": "COOPER", "SUB_2": "NOT AVAILABLE", "LINES": 1.0, "SOURCE_LAT": 40.3628, "SOURC_LONG": -95.6408 }, "geometry": { "type": "Point", "coordinates": [ -95.641310307999959, 40.362099809000028 ] } },
{ "type": "Feature", "properties": { "OBJECTID": 6168, "PLANT_CODE": "8055", "NAME": "ARKANSAS NUCLEAR ONE", "ADDRESS": "1448 STATE RD 333", "CITY": "RUSSELLVILLE", "STATE": "AR", "ZIP": "72801", "TELEPHONE": "(479) 858-3111", "TYPE": "NUCLEAR", "STATUS": "OP", "COUNTY": "POPE", "COUNTYFIPS": "05115", "COUNTRY": "USA", "LATITUDE": 35.310614527000041, "LONGITUDE": -93.231002567999951, "NAICS_CODE": "221113", "NAICS_DESC": "NUCLEAR ELECTRIC POWER GENERATION", "SOURCE": "EIA 860, EIA 923", "SOURCEDATE": "2019-09-03T00:00:00Z", "VAL_METHOD": "IMAGERY/OTHER", "VAL_DATE": "2015-04-29T00:00:00Z", "WEBSITE": "http://www.entergy-nuclear.com/plant_information/ano.aspx", "OPERATOR": "ENTERGY ARKANSAS INC", "OPERAT_ID": "814", "OPER_CAP": 1845.0, "SUMMER_CAP": 1817.8, "WINTER_CAP": 1854.0, "PLAN_CAP": 0.0, "RETIRE_CAP": 0.0, "GEN_UNITS": 2.0, "PLAN_UNIT": 0.0, "RETIR_UNIT": 0.0, "PRIM_FUEL": "NUC", "SEC_FUEL": "NOT AVAILABLE", "COAL_USED": 0.0, "NGAS_USED": 0.0, "OIL_USED": 0.0, "NET_GEN": 12720818.0, "CAP_FACTOR": 0.79884925377708305, "SUB_1": "ARKANSAS NUCLEAR ONE", "SUB_2": "NOT AVAILABLE", "LINES": 1.0, "SOURCE_LAT": 35.311, "SOURC_LONG": -93.2351 }, "geometry": { "type": "Point", "coordinates": [ -93.231002567999951, 35.310614527000041 ] } },
{ "type": "Feature", "properties": { "OBJECTID": 6183, "PLANT_CODE": "8907", "NAME": "INDIAN POINT 3", "ADDRESS": "BROADWAY BLEAKLEY AVENUE", "CITY": "BUCHANAN", "STATE": "NY", "ZIP": "10511", "TELEPHONE": "NOT AVAILABLE", "TYPE": "NUCLEAR", "STATUS": "OP", "COUNTY": "WESTCHESTER", "COUNTYFIPS": "36119", "COUNTRY": "USA", "LATITUDE": 41.2706, "LONGITUDE": -73.9526, "NAICS_CODE": "221113", "NAICS_DESC": "NUCLEAR ELECTRIC POWER GENERATION", "SOURCE": "EIA 860, EIA 923", "SOURCEDATE": "2019-09-03T00:00:00Z", "VAL_METHOD": "IMAGERY", "VAL_DATE": "2015-05-14T00:00:00Z", "WEBSITE": "http://www.entergy-nuclear.com/plant_information/indian_point.aspx", "OPERATOR": "ENTERGY NUCLEAR INDIAN POINT 3", "OPERAT_ID": "6028", "OPER_CAP": 1012.0, "SUMMER_CAP": 1037.8, "WINTER_CAP": 1039.9, "PLAN_CAP": 0.0, "RETIRE_CAP": 0.0, "GEN_UNITS": 1.0, "PLAN_UNIT": 0.0, "RETIR_UNIT": 0.0, "PRIM_FUEL": "NUC", "SEC_FUEL": "NOT AVAILABLE", "COAL_USED": 0.0, "NGAS_USED": 0.0, "OIL_USED": 0.0, "NET_GEN": 8300481.0, "CAP_FACTOR": 0.91303092421534504, "SUB_1": "BUCHANAN", "SUB_2": "NOT AVAILABLE", "LINES": 1.0, "SOURCE_LAT": 41.2706, "SOURC_LONG": -73.9526 }, "geometry": { "type": "Point", "coordinates": [ -73.9526, 41.2706 ] } },
{ "type": "Feature", "properties": { "OBJECTID": 8373, "PLANT_CODE": "57894", "NAME": "LEVY NUCLEAR PLANT", "ADDRESS": "16231 SE HIGHWAY 19", "CITY": "INGLIS", "STATE": "FL", "ZIP": "34449", "TELEPHONE": "NOT AVAILABLE", "TYPE": "NUCLEAR", "STATUS": "IP", "COUNTY": "LEVY", "COUNTYFIPS": "12075", "COUNTRY": "USA", "LATITUDE": 29.07222, "LONGITUDE": -82.62028, "NAICS_CODE": "221113", "NAICS_DESC": "NUCLEAR ELECTRIC POWER GENERATION", "SOURCE": "EIA 860, EIA 923", "SOURCEDATE": "2019-09-03T00:00:00Z", "VAL_METHOD": "UNVERIFIED", "VAL_DATE": "2019-01-08T00:00:00Z", "WEBSITE": "NOT AVAILABLE", "OPERATOR": "DUKE ENERGY FLORIDA, LLC", "OPERAT_ID": "6455", "OPER_CAP": 0.0, "SUMMER_CAP": 0.0, "WINTER_CAP": 0.0, "PLAN_CAP": 0.0, "RETIRE_CAP": 2500.0, "GEN_UNITS": 0.0, "PLAN_UNIT": 0.0, "RETIR_UNIT": 2.0, "PRIM_FUEL": "NUC", "SEC_FUEL": "NOT AVAILABLE", "COAL_USED": 0.0, "NGAS_USED": 0.0, "OIL_USED": 0.0, "NET_GEN": -999999.0, "CAP_FACTOR": -999999.0, "SUB_1": "NOT AVAILABLE", "SUB_2": "NOT AVAILABLE", "LINES": 0.0, "SOURCE_LAT": 29.072222, "SOURC_LONG": -82.620278 }, "geometry": { "type": "Point", "coordinates": [ -82.62028, 29.07222 ] } }
]
}
